city,category,name,lat,lon,osm_type,osm_id
Annecy,museum,Musée d'art contemporain et d'art régional,45.8976558,6.1260521,node,3640440188
Annecy,museum,Observatoire régional des lacs alpins,45.8976377,6.1268333,node,4891589832
Annecy,museum,Centre d’Interprétation de l’Architecture et du Patrimoine,45.8985741,6.1269826,node,12157595234
Annecy,museum,Ecomusée du lac d'Annecy,45.8641436,6.1420278,node,12534072471
Annecy,museum,Musée de la Cloche PACCARD,45.8442658,6.1508093,way,70568938
Annecy,park,Piano,45.9375105,6.1328994,node,12161642821
Annecy,park,Parc des Marquisats - Clos Laeuffer,45.892282,6.1343779,node,13158475106
Annecy,park,Parc Vignières-Pommaries,45.9134793,6.147292,way,24393219
Annecy,park,Le Pâquier,45.9018343,6.1318435,way,24522215
Annecy,park,Île Saint-Joseph,45.8984796,6.1213839,way,24669685
Annecy,park,Square Bernard Bosson,45.900026,6.1248227,way,25008757
Annecy,park,Parc Charles Bosson,45.9035588,6.1433378,way,26184739
Annecy,park,Les Jardins de l'Europe,45.8992588,6.1308443,way,26185233
Annecy,park,Plage d'Albigny,45.9046134,6.1478368,way,30702787
Annecy,park,Square du 8 Mai 1945,45.9063805,6.1296221,way,36279570
Annecy,park,Square du Collège,45.8997235,6.1269862,way,37202343
Annecy,park,Square des Hirondelles,45.9051164,6.1182314,way,37666717
Annecy,park,Square des Laurentides,45.8987672,6.1139672,way,37704381
Annecy,park,Square de Stalingrad,45.900656,6.121786,way,37760411
Annecy,park,Sans nom,45.9005623,6.1201578,way,37763050
Annecy,park,Place aux Bois,45.8977901,6.1293422,way,40430734
Annecy,park,Jardin des Remparts,45.8975353,6.1243493,way,40432581
Annecy,park,Salle polyvalente,45.8814113,6.1799527,way,62953732
Annecy,park,Parc Gabriel Fauré,45.9185409,6.1429246,way,85254153
Annecy,park,Parc des Raisses,45.9120701,6.1511227,way,206114457
Annecy,park,Parc du Pré de Vassy,45.8886309,6.0925024,way,237190197
Annecy,park,Parc esplanade Paul Grimault,45.9030164,6.1243835,way,256280732
Annecy,park,Square de la Côte Perrière,45.8975724,6.1274691,way,272998078
Annecy,park,Sans nom,45.859081,6.1862032,way,303746843
Annecy,park,Square Angoulême,45.8863852,6.098195,way,315876471
Annecy,park,Square des Clarines,45.9149886,6.1406826,way,338045445
Annecy,park,Sans nom,45.8994826,6.113506,way,346564718
Annecy,park,Parc du Petit Brogny,45.9271132,6.1276911,way,352059216
Annecy,park,Sans nom,45.8595598,6.1435041,way,388476451
Annecy,park,Plage municipale de Sevrier,45.8626204,6.1438757,way,388478099
Annecy,park,Parc le Trésum,45.8964642,6.1297103,way,405709936
Annecy,park,Plage Municipale,45.8636877,6.1865971,way,420107672
Annecy,park,Square des Martyrs de la Déportation,45.9021743,6.1273516,way,455743817
Annecy,park,Sans nom,45.8727066,6.1432933,way,461923759
Annecy,park,Parc Quai de la Tournette,45.8974439,6.1315191,way,462034522
Annecy,park,Place de l'Abbaye,45.9165323,6.1400522,way,513651361
Annecy,park,Jardin Public du 8 mai 1945,45.9079999,6.1079304,way,536752626
Annecy,park,Promenade Cheltenham,45.8914875,6.1397536,way,551398343
Annecy,park,Parc des Artisans,45.9105445,6.1388587,way,562162766
Annecy,park,Sans nom,45.9121933,6.1287899,way,564771956
Annecy,park,Sans nom,45.9116583,6.128861,way,564771957
Annecy,park,Place Longiret,45.8842437,6.0954487,way,596565660
Annecy,park,Square Riante Colline,45.9014421,6.0967956,way,607862505
Annecy,park,Square des Pervenches,45.9029886,6.1000146,way,609724190
Annecy,park,Sans nom,45.9107849,6.140199,way,632869105
Annecy,park,Parc du Lachat,45.9237619,6.1476609,way,663500781
Annecy,park,Pelouse,45.8869395,6.0965432,way,679004505
Annecy,park,Sans nom,45.9029539,6.142461,way,696765367
Annecy,park,Parc du Taillefer,45.8978925,6.1010773,way,759025423
Annecy,park,Square des Romains,45.9081253,6.1212599,way,784420314
Annecy,park,Parc de Malaz,45.8792498,6.1009857,way,791027196
Annecy,park,Sans nom,45.856324,6.1464514,way,837001969
Annecy,park,Sans nom,45.8683702,6.1835281,way,850531521
Annecy,park,Sans nom,45.8874067,6.1725807,way,850532974
Annecy,park,Square Camille Mugnier,45.9159735,6.1274776,way,865673634
Annecy,park,Sans nom,45.9095716,6.0902784,way,875744902
Annecy,park,Sans nom,45.9110061,6.0887948,way,875835088
Annecy,park,Sans nom,45.944232,6.1185351,way,886633817
Annecy,park,Sans nom,45.9410757,6.1421114,way,888284665
Annecy,park,Parc du Val Vert - Bassin de Loverchy,45.8884619,6.108323,way,891572225
Annecy,park,Sans nom,45.9160597,6.0868418,way,893087530
Annecy,park,Les Crêts,45.9437042,6.0993584,way,893383601
Annecy,park,Sans nom,45.9092928,6.0938783,way,893661578
Annecy,park,Sans nom,45.9252386,6.1039379,way,893677222
Annecy,park,Aires des Jeux,45.9039137,6.0940805,way,898023448
Annecy,park,Sans nom,45.9176696,6.0944247,way,900888422
Annecy,park,Square Paul Valéry,45.8994989,6.10919,way,905915245
Annecy,park,Parc des Papeteries,45.9074018,6.1045771,way,911362296
Annecy,park,Sans nom,45.8992861,6.1169503,way,929093579
Annecy,park,Square Jean Chamey,45.9153206,6.0918888,way,955841144
Annecy,park,Jardin du Manoir de Novel,45.9180903,6.1352636,way,961368140
Annecy,park,Sans nom,45.9046807,6.1095716,way,964054870
Annecy,park,Sans nom,45.9370669,6.0838501,way,964615984
Annecy,park,Square Louise Michel,45.9220456,6.1230635,way,973323066
Annecy,park,Square Gilette,45.9187962,6.1241549,way,973323095
Annecy,park,Sans nom,45.9150515,6.1184019,way,973323112
Annecy,park,Sans nom,45.91449,6.1194497,way,973323114
Annecy,park,Sans nom,45.9387393,6.090403,way,974012555
Annecy,park,Sans nom,45.8858158,6.1057728,way,974649366
Annecy,park,Parc du Parmelan,45.9098953,6.1377011,way,978464837
Annecy,park,Parc Jardin Galbert,45.9083705,6.1250875,way,981325197
Annecy,park,Place Galbert,45.9088991,6.1242294,way,981325198
Annecy,park,Sans nom,45.9061988,6.152555,way,982351665
Annecy,park,Parc du Colovry,45.9059615,6.1489924,way,982351666
Annecy,park,Square des Salomons,45.9095824,6.1394023,way,982351710
Annecy,park,Sans nom,45.9101329,6.1376764,way,988376715
Annecy,park,Place des Efléchères,45.8981414,6.1265207,way,1041580668
Annecy,park,Sans nom,45.8996602,6.1173966,way,1134011387
Annecy,park,Square du Jourdil,45.9064224,6.0994243,way,1145042140
Annecy,park,Sans nom,45.833009,6.1650661,way,1148865927
Annecy,park,Sans nom,45.8370422,6.1562176,way,1150813632
Annecy,park,Sans nom,45.8361381,6.1578527,way,1150813633
Annecy,park,Sans nom,45.8381401,6.1570932,way,1150813636
Annecy,park,Sans nom,45.8464095,6.1432048,way,1158545623
Annecy,park,Sans nom,45.8469008,6.1431183,way,1159130724
Annecy,park,Sans nom,45.8484474,6.1412964,way,1159130755
Annecy,park,Sans nom,45.845496,6.1420467,way,1159130756
Annecy,park,Sans nom,45.8831472,6.1421891,way,1165237671
Annecy,park,Sans nom,45.8746951,6.1426163,way,1165439419
Annecy,park,Sans nom,45.9049611,6.1066204,way,1185725587
Annecy,park,Sans nom,45.8975338,6.1173139,way,1185895028
Annecy,park,Plage de La Brune,45.8787988,6.1751002,way,1196754373
Annecy,park,Jardin Roger Allard-Metral,45.9510705,6.1901334,way,1245547903
Annecy,park,Parc de la Colline,45.9208102,6.13002,way,1306045927
Annecy,park,Sans nom,45.9031687,6.1327089,way,1308504520
Annecy,park,Sans nom,45.9493535,6.1876062,way,1317899645
Annecy,park,Square de la Muraz,45.8556458,6.1890598,way,1337359445
Annecy,park,Sans nom,45.8555432,6.188574,way,1337359447
Annecy,park,Sans nom,45.9092569,6.1545778,way,1339285813
Annecy,park,Sans nom,45.9258033,6.1497795,way,1340077676
Annecy,park,Sans nom,45.9039937,6.145874,way,1341047533
Annecy,park,Sans nom,45.8965704,6.1268751,way,1341632995
Annecy,park,Sans nom,45.8987385,6.1232763,way,1341852902
Annecy,park,Square des Bains,45.8560207,6.192927,way,1346888933
Annecy,park,Sans nom,45.919116,6.1436184,way,1347299348
Annecy,park,Square de Loverchy,45.8942053,6.1178188,way,1349001539
Annecy,park,Sans nom,45.9155875,6.1445133,way,1350734861
Annecy,park,Sans nom,45.8823693,6.1004069,way,1357862167
Annecy,park,Sans nom,45.8968407,6.1293922,way,1363357634
Annecy,park,Sans nom,45.8949055,6.1126369,way,1378070555
Annecy,park,Sans nom,45.8895723,6.0926237,way,1378370793
Annecy,park,Sans nom,45.8906044,6.0939855,way,1378370822
Annecy,park,Sans nom,45.9400877,6.1088634,way,1382557168
Annecy,park,Sans nom,45.9035049,6.1261171,way,1424097341
Annecy,park,Les Jardins du Prieuré,45.8632924,6.1422986,way,1433037067
Annecy,park,Haras national d'Annecy,45.9047805,6.1273776,relation,6553599
Annecy,park,Square de la Fraternité,45.9119176,6.1288036,relation,7446673
Annecy,park,Square de Verdun,45.9012509,6.1214736,relation,8332586
Annecy,restaurant,Le Catino,45.9177072,6.1319419,node,339815098
Annecy,restaurant,La Sarrazine,45.9170715,6.1332383,node,341372776
Annecy,restaurant,L'Ami Divin,45.9184003,6.1300426,node,357439231
Annecy,restaurant,La Coupole,45.8992754,6.124004,node,434065153
Annecy,restaurant,Inspiration 212,45.9065568,6.1239537,node,492086304
Annecy,restaurant,l'Atout Cœur,45.9028665,6.1282633,node,492086316
Annecy,restaurant,La Belle Époque,45.9021918,6.1288112,node,492086322
Annecy,restaurant,Le comptoir du Palais,45.9038259,6.1306202,node,492086325
Annecy,restaurant,Ô Sushi,45.9039448,6.1304497,node,492086327
Annecy,restaurant,Bock'Café,45.908651,6.1291353,node,492086333
Annecy,restaurant,Le Pêcheur,45.8799636,6.1750302,node,829506624
Annecy,restaurant,New Japan,45.935064,6.0815581,node,1224332058
Annecy,restaurant,Auberge de Savoie,45.8987686,6.1280362,node,1352560241
Annecy,restaurant,Sans nom,45.9211957,6.0641039,node,1431985937
Annecy,restaurant,Café de la Place,45.921722,6.0628969,node,1431985946
Annecy,restaurant,Auberge des Tonnelles,45.8737487,6.1413427,node,1455440295
Annecy,restaurant,Le Lac Bleu,45.8473748,6.1465009,node,1455440333
Annecy,restaurant,Le P'tit Savoyard,45.8475073,6.1464211,node,1455440334
Annecy,restaurant,Le Rituel,45.8787505,6.1413753,node,1455440348
Annecy,restaurant,Sans nom,45.8770703,6.141464,node,1455440381
Annecy,restaurant,Gamin,45.9054367,6.119322,node,1786404287
Annecy,restaurant,Le Ryad,45.9062267,6.1162908,node,1786404293
Annecy,restaurant,Los Primos,45.9062508,6.1160525,node,1786404295
Annecy,restaurant,Le point B,45.9033961,6.1178714,node,1791348901
Annecy,restaurant,Chez Pen,45.9044115,6.1213905,node,1791348902
Annecy,restaurant,Petit Bacchus,45.9069464,6.1341235,node,1978964597
Annecy,restaurant,Le Saint-Charles,45.9071659,6.1351771,node,1978964858
Annecy,restaurant,La Bolée,45.9024774,6.1249654,node,2000527457
Annecy,restaurant,The Roster,45.9382984,6.1223352,node,2007934434
Annecy,restaurant,Mapp Italian Fresh Food,45.9309576,6.1672392,node,2008795156
Annecy,restaurant,Paula La Pizzaiola,45.920245,6.0591235,node,2025355689
Annecy,restaurant,Brasserie des Européens,45.89903,6.1282879,node,2107181674
Annecy,restaurant,Chez Jojo,45.9044828,6.0999319,node,2234304727
Annecy,restaurant,Restaurant Municipal,45.890793,6.0998436,node,2410115322
Annecy,restaurant,clos du chateau,45.9545732,6.1126297,node,2513998253
Annecy,restaurant,L'Étage,45.9008233,6.1266374,node,2583764407
Annecy,restaurant,Le 55,45.9335611,6.0777645,node,2673172087
Annecy,restaurant,Jadelight Buffet,45.8942269,6.1103182,node,2911983429
Annecy,restaurant,Arômatik',45.8979582,6.1233183,node,3013951047
Annecy,restaurant,Café Brunet,45.9199674,6.1423308,node,3081474404
Annecy,restaurant,Brasserie de la paix,45.9030358,6.1254728,node,3092565383
Annecy,restaurant,Bateau-Restaurant MS Libellule,45.8983758,6.1295859,node,3124526912
Annecy,restaurant,Restaurant l'Île Bleue,45.8866945,6.0966468,node,3219160663
Annecy,restaurant,La Roselière,45.9052555,6.1437642,node,3231494091
Annecy,restaurant,Bleu 1801,45.8971049,6.1639704,node,3235825233
Annecy,restaurant,Chez Mamie Anh,45.9150458,6.1450243,node,3341930311
Annecy,restaurant,Le Céjo,45.9408193,6.105741,node,3378215479
Annecy,restaurant,Le Republic,45.9385812,6.0908866,node,3378373210
Annecy,restaurant,Les Tables,45.8981136,6.1237899,node,3455497228
Annecy,restaurant,l'Oasis Auberge du Bessard,45.8785822,6.1428424,node,3543243526
Annecy,restaurant,Le Clos des Sens,45.9178443,6.1444244,node,3546461467
Annecy,restaurant,La Crêperie d'Annecy le vieux,45.9217307,6.1452791,node,3553416320
Annecy,restaurant,Pizza Pepone,45.9218512,6.1454469,node,3553416321
Annecy,restaurant,La Fringale,45.904142,6.159923,node,3579013335
Annecy,restaurant,Albertine by Le Tanoué,45.8997502,6.1224678,node,3622029342
Annecy,restaurant,Amma,45.8995622,6.1230604,node,3622029346
Annecy,restaurant,Origines,45.8993473,6.123178,node,3622029347
Annecy,restaurant,Beau Soleil,45.8988052,6.1269312,node,3657693625
Annecy,restaurant,Pont Morens,45.8987528,6.1260355,node,3657694825
Annecy,restaurant,Tête de Cochon,45.8983201,6.1252377,node,3657695325
Annecy,restaurant,The Little Italy,45.8985009,6.1246908,node,3657696525
Annecy,restaurant,Créabistro,45.8978835,6.1233912,node,3657696526
Annecy,restaurant,La Porte Sainte-Claire,45.8978145,6.1234972,node,3657702725
Annecy,restaurant,La Coupole Brasserie,45.8990751,6.1240668,node,3657703048
Annecy,restaurant,L'Authentic,45.8983398,6.1261689,node,3657703359
Annecy,restaurant,Le Pékin,45.8992548,6.119799,node,3657703428
Annecy,restaurant,Kalapita,45.8973919,6.1231751,node,3657704125
Annecy,restaurant,Le Vieil Annecy,45.8982933,6.1275608,node,3657731646
Annecy,restaurant,Ô Savoyard !,45.8983188,6.1268981,node,3657733829
Annecy,restaurant,Boeuf patate,45.8981692,6.1273863,node,3717112753
Annecy,restaurant,Amicipizza,45.914764,6.0912103,node,3804327690
Annecy,restaurant,Chalet du Port,45.8589475,6.18662,node,3901575737
Annecy,restaurant,chez long,45.8670816,6.1397129,node,3916714310
Annecy,restaurant,Le Bistrot du Port,45.8598784,6.1448109,node,4111478191
Annecy,restaurant,Café de la poste,45.9339699,6.1893724,node,4112348991
Annecy,restaurant,Le Bel Abri,45.9054636,6.1592937,node,4202114841
Annecy,restaurant,Le Freti,45.8985465,6.124928,node,4212557490
Annecy,restaurant,Yoann Conte,45.888864,6.1720869,node,4213832470
Annecy,restaurant,Bloomer,45.9017652,6.1232818,node,4219944397
Annecy,restaurant,La Crêperie du Thiou,45.898691,6.1275524,node,4336791232
Annecy,restaurant,Le salon français,45.8998273,6.1221485,node,4359022597
Annecy,restaurant,La Jungle,45.9427214,6.0733998,node,4374706227
Annecy,restaurant,Captain Pub,45.898479,6.1257591,node,4412293197
Annecy,restaurant,Bon Pain Bon Vin,45.8993427,6.1264374,node,4412293198
Annecy,restaurant,Le T Quatre,45.9002995,6.1258296,node,4412293199
Annecy,restaurant,Le Chalet,45.8987864,6.1258253,node,4412293200
Annecy,restaurant,Rive Gauche,45.8983779,6.1267236,node,4412293223
Annecy,restaurant,Chez Monique,45.8981424,6.1239968,node,4416258650
Annecy,restaurant,Brasserie Brunet,45.9014694,6.1230034,node,4416258652
Annecy,restaurant,Feuille de Lotus,45.8992178,6.1242691,node,4416258654
Annecy,restaurant,La Galéjade,45.8980974,6.128609,node,4416258665
Annecy,restaurant,La Table d'Elise,45.8982353,6.1279571,node,4416258666
Annecy,restaurant,La Maison,45.8981263,6.1283904,node,4416258670
Annecy,restaurant,Le paradis du fruit,45.9013796,6.1230302,node,4416258671
Annecy,restaurant,Le Sarto,45.8981722,6.1281094,node,4416258672
Annecy,restaurant,Le Vertumne,45.9021246,6.1238091,node,4416258673
Annecy,restaurant,Les Chineurs de la Cusine,45.8979792,6.1234804,node,4416258675
Annecy,restaurant,1er Mets,45.8989488,6.1273398,node,4416258722
Annecy,restaurant,MAPP,45.9385101,6.1190608,node,4475562390
Annecy,restaurant,Pizza Valtor,45.9458607,6.1399456,node,4475576691
Annecy,restaurant,Amata traiteur italien,45.9150352,6.1235192,node,4475589992
Annecy,restaurant,Café Cuisine,45.937939,6.1224028,node,4475662689
Annecy,restaurant,Yin Ba,45.8998033,6.1220534,node,4607568591
Annecy,restaurant,Le Denti,45.8964222,6.1206565,node,4610148255
Annecy,restaurant,La Ciboulette,45.9018275,6.126146,node,4621663497
Annecy,restaurant,Les Quatre Gourmets,45.9184363,6.1440727,node,4642597889
Annecy,restaurant,La Bella Romana,45.9208644,6.0892664,node,4688792843
Annecy,restaurant,Au Cha L'heureux,45.8832899,6.0620872,node,4747211752
Annecy,restaurant,The Roster,45.9092754,6.0965787,node,4759858321
Annecy,restaurant,Le Bilboquet,45.8975082,6.1231306,node,4861746345
Annecy,restaurant,Café Bichette,45.8981417,6.1274445,node,4895456419
Annecy,restaurant,Oson Doson,45.8992021,6.1170843,node,4896060635
Annecy,restaurant,Sapaudia Caffè,45.9006392,6.1232659,node,4932495507
Annecy,restaurant,Les Princes de Savoie,45.9008595,6.1231626,node,4932495510
Annecy,restaurant,Les Crêpes de Dame Kerlou,45.8602154,6.1429496,node,4937089723
Annecy,restaurant,Royal Pizza,45.8317476,6.1720495,node,4942808088
Annecy,restaurant,EBO Annecy,45.9052058,6.1483496,node,4948112549
Annecy,restaurant,La Maison du Lac,45.9051097,6.1478303,node,4948114725
Annecy,restaurant,Le sultan,45.9094363,6.1379907,node,4948115516
Annecy,restaurant,Bistro Green,45.9194263,6.1416344,node,4975651612
Annecy,restaurant,L'Albigny,45.9065503,6.1460627,node,4994132498
Annecy,restaurant,Le ptit Bistro,45.9065317,6.1460023,node,4994132499
Annecy,restaurant,Fleur de Sel,45.9242892,6.1649783,node,4995129647
Annecy,restaurant,Pizza Italia,45.9387241,6.1223118,node,5003387187
Annecy,restaurant,L'amnésie,45.9387615,6.1272118,node,5028440439
Annecy,restaurant,Slake Coffee,45.902444,6.1261824,node,5081255422
Annecy,restaurant,Tom Morel,45.919404,6.1598494,node,5259840829
Annecy,restaurant,5 Stelle d'oro,45.9071198,6.1070075,node,5263230521
Annecy,restaurant,Tribeca Cosmopolitan Bistro,45.9443308,6.1265614,node,5299349655
Annecy,restaurant,L'Orangerie,45.9177896,6.0829734,node,5329705179
Annecy,restaurant,L'Envol,45.9310225,6.1066907,node,5329712356
Annecy,restaurant,Le Poulailler,45.8936771,6.1177762,node,5351022366
Annecy,restaurant,La Romantica,45.8991359,6.1179012,node,5382881821
Annecy,restaurant,Auberge de Villaz,45.9520095,6.194255,node,5516401983
Annecy,restaurant,Le Mulligan,45.8503833,6.2021551,node,5570970921
Annecy,restaurant,La Place d'Italie,45.85155,6.1453249,node,5606465291
Annecy,restaurant,Tokyo Sushi,45.8514716,6.1453562,node,5606465292
Annecy,restaurant,Les Acacias,45.8868315,6.174704,node,5615088710
Annecy,restaurant,L'Esquisse,45.8997318,6.1223872,node,5632969023
Annecy,restaurant,Koto Koto,45.8905065,6.1153904,node,5651600132
Annecy,restaurant,L'Estaminet,45.8985392,6.1251069,node,5692587721
Annecy,restaurant,Minami,45.8973092,6.1229708,node,5693728515
Annecy,restaurant,L'incandescent,45.8978171,6.1233297,node,5694524624
Annecy,restaurant,Les Moustaches de Zébulon,45.8954862,6.1197446,node,5740048514
Annecy,restaurant,Wabaki,45.8978468,6.1233518,node,5834536750
Annecy,restaurant,Le Florilège,45.833431,6.1636705,node,5874150456
Annecy,restaurant,Food Cancan,45.833176,6.1634007,node,5874150457
Annecy,restaurant,Brasserie Irma - Bocuse,45.9061715,6.155262,node,5876500799
Annecy,restaurant,Restaurant des Tennis,45.8613996,6.1887225,node,5876500829
Annecy,restaurant,Puits Saint-Jean,45.9007685,6.1264081,node,5876978418
Annecy,restaurant,L'appart du dix-sept,45.9007867,6.1264779,node,5876978419
Annecy,restaurant,L'abbaye,45.9010798,6.1267635,node,5876978435
Annecy,restaurant,Le Napoli,45.9010639,6.1266851,node,5876978436
Annecy,restaurant,Le Pas Sage,45.8993258,6.1267021,node,5896911952
Annecy,restaurant,Le Lilas Rose,45.8987104,6.1248314,node,5913661713
Annecy,restaurant,Auberge du Lyonnais,45.8990307,6.1240763,node,5952520351
Annecy,restaurant,basta Cosi !,45.9205081,6.0836148,node,6095536316
Annecy,restaurant,Cortigrimpe,45.9363312,6.1080329,node,6133741255
Annecy,restaurant,La Mamma,45.9188645,6.1317953,node,6208649286
Annecy,restaurant,Bistro Sauvage,45.9082549,6.1193282,node,6467097678
Annecy,restaurant,Au Bureau,45.9013466,6.1226811,node,6467657422
Annecy,restaurant,Pizza Cosy,45.901611,6.1225587,node,6467938179
Annecy,restaurant,Pizza Kheops,45.9108435,6.1239659,node,6471682354
Annecy,restaurant,New Delhi,45.9149929,6.1246874,node,6471706804
Annecy,restaurant,La Récré,45.9069944,6.1262719,node,6482384158
Annecy,restaurant,La Brasserie de l'Impérial,45.9033577,6.1444088,node,6489365063
Annecy,restaurant,Djo Pizza,45.9065101,6.1459441,node,6499407611
Annecy,restaurant,Brasserie du Parc,45.9064242,6.1465931,node,6499407612
Annecy,restaurant,OXO,45.9067202,6.1472094,node,6499407622
Annecy,restaurant,Crêperie Bretonne La Bolée,45.8982036,6.1264097,node,6533719185
Annecy,restaurant,Kelsa,45.898285,6.1265431,node,6533760285
Annecy,restaurant,Savoie Bar,45.8988289,6.1277574,node,6611060685
Annecy,restaurant,Jasmin,45.8977164,6.1233772,node,6655547040
Annecy,restaurant,Yatta ! Ramen,45.9121693,6.1436676,node,6761918860
Annecy,restaurant,La Bastille,45.8984084,6.127382,node,6764718486
Annecy,restaurant,Le Bouillon,45.8992137,6.1217427,node,6822369017
Annecy,restaurant,Sushi Box,45.9006061,6.1243253,node,6830378733
Annecy,restaurant,Le Kabuki,45.9008834,6.1181447,node,6837266584
Annecy,restaurant,Le Nid du Merle,45.8992986,6.1217089,node,6837378898
Annecy,restaurant,The Craic,45.9028982,6.1226412,node,6839810701
Annecy,restaurant,le Bap’s bar à salades,45.9009263,6.1196667,node,6843984940
Annecy,restaurant,La Table d'Ébène,45.9004258,6.120072,node,6844030994
Annecy,restaurant,Lac Casa,45.8992374,6.1197144,node,6888907178
Annecy,restaurant,Mezze & Co,45.8991977,6.1195729,node,6888907183
Annecy,restaurant,Chez Firmin,45.8991148,6.1186076,node,6889249968
Annecy,restaurant,L'Étagère,45.8991834,6.1187181,node,6889249975
Annecy,restaurant,Kia Ora,45.8997705,6.1215097,node,6902522701
Annecy,restaurant,L'Impasse,45.8998411,6.1238871,node,6902617875
Annecy,restaurant,Allegria,45.8995321,6.1229508,node,6915464630
Annecy,restaurant,Racines,45.8994019,6.1228935,node,6915464634
Annecy,restaurant,SV 144,45.8996623,6.1230155,node,6915486852
Annecy,restaurant,L'Osteria,45.8996255,6.1229551,node,6915486855
Annecy,restaurant,Bufa Pizza,45.899455,6.1235766,node,6915490862
Annecy,restaurant,Le Tanoué,45.9032297,6.1255886,node,6967781067
Annecy,restaurant,Jun,45.8978008,6.1276498,node,7088118784
Annecy,restaurant,Sans nom,45.8982395,6.1272662,node,7088120434
Annecy,restaurant,La Romana Pizzeria,45.933954,6.1278638,node,7088307430
Annecy,restaurant,Cantine de l'école,45.8813077,6.1799334,node,7138518535
Annecy,restaurant,Le Panda Gourmet,45.9127391,6.0951936,node,7473528132
Annecy,restaurant,Les Comptoirs D'Asie,45.9218591,6.0898322,node,7473625182
Annecy,restaurant,Les 3 Caesars,45.9213297,6.090791,node,7473625183
Annecy,restaurant,La Strada,45.9217701,6.0898985,node,7473625184
Annecy,restaurant,Granny Smith,45.9040706,6.1304023,node,7563526593
Annecy,restaurant,Taj Mahal,45.8995593,6.1167721,node,7612026439
Annecy,restaurant,Le Bistro du Rhône,45.899369,6.1168775,node,7612026440
Annecy,restaurant,La Passion Des Saveurs,45.940493,6.0775702,node,7622666609
Annecy,restaurant,New Tokyo,45.9338221,6.082177,node,7624160834
Annecy,restaurant,L'Antre O Potes,45.9339618,6.0822816,node,7624160835
Annecy,restaurant,Pizza Hut,45.9055993,6.1198804,node,7712026987
Annecy,restaurant,Les Petites cantines Annecy,45.9098399,6.1118992,node,7744079261
Annecy,restaurant,Sapaudia Trattoria,45.9019707,6.1257959,node,7862603217
Annecy,restaurant,Indian's Food,45.8982213,6.1158514,node,7899588896
Annecy,restaurant,L'Eridan,45.8989404,6.1249349,node,7903335788
Annecy,restaurant,L'heure tourne,45.9033705,6.1257657,node,7903335789
Annecy,restaurant,Punch,45.9030846,6.1256275,node,7903335791
Annecy,restaurant,Nuance,45.8977383,6.1232679,node,8146283337
Annecy,restaurant,La Rotonde des Trésoms,45.8896997,6.13704,node,8157280247
Annecy,restaurant,Bar-Tabac Chez Jeannot,45.8839633,6.0622825,node,8231896460
Annecy,restaurant,New China,45.9214998,6.0888988,node,8355488563
Annecy,restaurant,Le Ché,45.9198571,6.0892864,node,8355488620
Annecy,restaurant,American diner,45.9430547,6.0613404,node,8409902834
Annecy,restaurant,Quart de cercle,45.9170376,6.0923114,node,8420666613
Annecy,restaurant,Mcourt,45.9022206,6.1247269,node,8519906381
Annecy,restaurant,Le restaurant,45.9063813,6.1239617,node,8532705845
Annecy,restaurant,Maestro,45.937377,6.0790981,node,8564610869
Annecy,restaurant,Cantine du collège des Barattes,45.9132228,6.1564695,node,8709411650
Annecy,restaurant,Le Venitien,45.8996457,6.1243822,node,8755287426
Annecy,restaurant,Yatta ! Ramen Seynod Annecy,45.8860544,6.1137577,node,8861538929
Annecy,restaurant,La Petite Reine,45.8905566,6.1716154,node,8954669499
Annecy,restaurant,La Voglia,45.8986546,6.1236785,node,9360832870
Annecy,restaurant,Ailleurs qu'ici,45.902732,6.1285853,node,9412785829
Annecy,restaurant,Fujikoya,45.9027202,6.1273806,node,9412799335
Annecy,restaurant,L'osmose du lac,45.8591023,6.1965969,node,9413089819
Annecy,restaurant,L'imprévu,45.8599185,6.1962241,node,9469361807
Annecy,restaurant,Le confidentiel,45.859945,6.1962712,node,9469390869
Annecy,restaurant,Sans nom,45.937552,6.1218998,node,9480926054
Annecy,restaurant,Suko,45.9380005,6.1217786,node,9480934026
Annecy,restaurant,Ttabegam,45.8989868,6.1243941,node,9517218984
Annecy,restaurant,Les Burgers de Pierre,45.9056939,6.1447395,node,9571252190
Annecy,restaurant,Le ramoneur savoyard,45.8991076,6.1269381,node,9587626543
Annecy,restaurant,The Marcel Bistrot,45.926948,6.1673582,node,9629439446
Annecy,restaurant,Vif Annecy,45.8998125,6.1263793,node,9668046318
Annecy,restaurant,Azzuro,45.8979301,6.1233533,node,9673750317
Annecy,restaurant,Les tilleuls,45.834359,6.1664314,node,9718934189
Annecy,restaurant,Pizza Pepone,45.9068916,6.1092499,node,9797983688
Annecy,restaurant,Bamboo,45.9069348,6.1093403,node,9797992037
Annecy,restaurant,La storia,45.9064624,6.1060764,node,9868089422
Annecy,restaurant,Le Petit Thiou,45.9071441,6.1071575,node,9883667311
Annecy,restaurant,Le Binôme,45.9150371,6.1473227,node,9887641616
Annecy,restaurant,La Brasserie Gourmande,45.8895463,6.0824544,node,9893900518
Annecy,restaurant,Taobento,45.8441422,6.1494726,node,9925009720
Annecy,restaurant,Sapaudia Sainte-Claire,45.8975972,6.1231488,node,9939763291
Annecy,restaurant,Le Regann,45.9016007,6.1268706,node,9977418589
Annecy,restaurant,La Collina,45.9153516,6.1390136,node,9983849517
Annecy,restaurant,Chez Renée,45.9038876,6.130476,node,10008287273
Annecy,restaurant,Mapp,45.8885359,6.1018358,node,10042269374
Annecy,restaurant,Pizza du Treige,45.8611261,6.0680308,node,10213006963
Annecy,restaurant,Le Bistrot du Treige,45.8627789,6.0680032,node,10213023078
Annecy,restaurant,Maison Favre Felix & L'atelier,45.9062404,6.131824,node,10295258937
Annecy,restaurant,Mazette,45.8973613,6.1231293,node,10295446587
Annecy,restaurant,Galopin,45.8990766,6.1227535,node,10300586093
Annecy,restaurant,Bistrot Pierrot,45.9124669,6.1354415,node,10310877699
Annecy,restaurant,Le Tandem,45.9154377,6.1240214,node,10587385306
Annecy,restaurant,Chez Ingalls,45.9011092,6.1236477,node,10669048590
Annecy,restaurant,Le Tuktuk,45.9165129,6.1311786,node,10701218864
Annecy,restaurant,Canailles,45.909434,6.1235653,node,10718813281
Annecy,restaurant,Le moulin à Pizza,45.8412526,6.0584749,node,10915936607
Annecy,restaurant,Le Prado,45.9124494,6.1121549,node,10922708463
Annecy,restaurant,Le Freti Côté Prairie,45.8943873,6.1206603,node,11002710814
Annecy,restaurant,Ginette,45.9027837,6.126528,node,11016373802
Annecy,restaurant,Maï,45.960561,6.1661286,node,11017989032
Annecy,restaurant,Boucle d’Or,45.9604188,6.1662915,node,11017989036
Annecy,restaurant,L'atlas,45.8989748,6.1279431,node,11089134992
Annecy,restaurant,Miamici delle Alpi,45.9059933,6.1315109,node,11101898607
Annecy,restaurant,La Dolce Vita,45.9059181,6.1162794,node,11118651983
Annecy,restaurant,Nagoya Sushi,45.8989378,6.1274155,node,11118898264
Annecy,restaurant,La Douzaine,45.8985521,6.1250348,node,11118898267
Annecy,restaurant,Brasserie Le Bon Lieu,45.9019934,6.1274649,node,11118898271
Annecy,restaurant,Le poisson rouge,45.8676642,6.1435334,node,11126274961
Annecy,restaurant,La Piste Verte,45.845421,6.1525096,node,11153427822
Annecy,restaurant,Elwood,45.9390483,6.1338063,node,11156111521
Annecy,restaurant,Choral,45.9096716,6.1201969,node,11266353059
Annecy,restaurant,Le Frenchie,45.9092106,6.1207253,node,11266353060
Annecy,restaurant,TOM,45.8991461,6.1170087,node,11292581996
Annecy,restaurant,Le Cappadoc,45.8993234,6.1168234,node,11297311681
Annecy,restaurant,Les mâles élevés,45.9608635,6.166328,node,11374882657
Annecy,restaurant,La Cour 24,45.8980889,6.1278489,node,11387837416
Annecy,restaurant,Vinistrot,45.898153,6.1271151,node,11476443869
Annecy,restaurant,Le Ciselin,45.9070372,6.1470752,node,11494284869
Annecy,restaurant,Nouilles Nouilles,45.8994494,6.1169418,node,11530792090
Annecy,restaurant,Shiva,45.8991672,6.1155353,node,11533474541
Annecy,restaurant,Nouilles Nouillles,45.8994504,6.1169559,node,11533477972
Annecy,restaurant,Le Marrakech,45.8987234,6.1164392,node,11533494379
Annecy,restaurant,"BAKHCHICH, BABA !",45.8991265,6.1152989,node,11533494380
Annecy,restaurant,Dip Honest Food,45.8993755,6.1216779,node,11695042060
Annecy,restaurant,Les quais,45.9142043,6.0915537,node,11695077892
Annecy,restaurant,Le saint Georges,45.9148326,6.0919465,node,11700736293
Annecy,restaurant,Tex Mex cafe 201,45.8831113,6.0972606,node,11777782833
Annecy,restaurant,la cigale du lac,45.8644313,6.1406113,node,11818026158
Annecy,restaurant,la bulle bistrot,45.8638023,6.1408613,node,11818026161
Annecy,restaurant,Bistro Régent,45.8759595,6.0873279,node,11818634053
Annecy,restaurant,kyo sushi,45.8755406,6.0864099,node,11818637068
Annecy,restaurant,l'intrépide,45.8754821,6.0865925,node,11818739271
Annecy,restaurant,ravigote,45.8989969,6.1242604,node,11824748847
Annecy,restaurant,Là-Haut,45.9101488,6.1391433,node,11827134151
Annecy,restaurant,Les Comptoirs D'Alice,45.8775323,6.0890865,node,11830811431
Annecy,restaurant,Little vietnam,45.8992995,6.1141478,node,11886321364
Annecy,restaurant,Nautic Café,45.8600939,6.1447932,node,11917496243
Annecy,restaurant,Le saut de l'ange,45.911665,6.0983199,node,11930267091
Annecy,restaurant,LMK Restaurant créole,45.897034,6.1226124,node,11930578068
Annecy,restaurant,Le Ritz,45.8969584,6.1228524,node,11930580569
Annecy,restaurant,Chez Mamie Lise,45.8991063,6.1272919,node,11935375599
Annecy,restaurant,Casa SANTA CLARA,45.8983114,6.1251752,node,11950483182
Annecy,restaurant,Saba,45.8973012,6.1229227,node,11962677673
Annecy,restaurant,Pizza Pepone,45.9117594,6.1306559,node,11990114973
Annecy,restaurant,Lords,45.9145891,6.1143891,node,12046705976
Annecy,restaurant,Le Carrousel,45.8973358,6.1230676,node,12051860515
Annecy,restaurant,Xing Fu Tang,45.9001138,6.1261579,node,12051869518
Annecy,restaurant,Bistrot Paquet,45.9008838,6.1267366,node,12051869904
Annecy,restaurant,Lilo Pizza,45.8492358,6.1461621,node,12101969294
Annecy,restaurant,Bouillon Bernadette,45.9052802,6.1437505,node,12188835541
Annecy,restaurant,L'histoire du sept,45.9145171,6.0909819,node,12275002891
Annecy,restaurant,Tapaoo,45.9133745,6.1383178,node,12291508634
Annecy,restaurant,Cozna,45.8973987,6.1228594,node,12358927601
Annecy,restaurant,Pizza Pepone,45.8876552,6.1010371,node,12365483419
Annecy,restaurant,RITA,45.9184245,6.1555211,node,12501237955
Annecy,restaurant,L'Atelier Artisan Crêpier - Epagny,45.9357408,6.0796921,node,12504129101
Annecy,restaurant,E-Motion,45.8896273,6.107689,node,12543981625
Annecy,restaurant,Restaurant Vincent Favre Félix,45.9169817,6.1410318,node,12561420318
Annecy,restaurant,Aki,45.9059083,6.1454741,node,12570765403
Annecy,restaurant,Plein sud,45.8987389,6.1262754,node,12698722901
Annecy,restaurant,P&Co,45.8913289,6.088364,node,12766090051
Annecy,restaurant,Plein Sud,45.8987519,6.1262591,node,12894825702
Annecy,restaurant,Les Négociantes,45.899255,6.1149971,node,12897744501
Annecy,restaurant,La Piscine by Les Châtaigniers,45.8303374,6.1498339,node,12973803595
Annecy,restaurant,La Guinguette du Pépé,45.8299926,6.1813269,node,12981652346
Annecy,restaurant,Bamboo,45.9405254,6.1397186,node,13023064091
Annecy,restaurant,Le Marrakech,45.8987521,6.1163647,node,13056322683
Annecy,restaurant,Waffle Factory,45.9351011,6.0794999,node,13057977217
Annecy,restaurant,Aux Amis,45.9189448,6.0955229,node,13063331311
Annecy,restaurant,Los Primos,45.8976643,6.1303867,node,13067648019
Annecy,restaurant,Giulia,45.8975587,6.1305363,node,13067648125
Annecy,restaurant,Restaurant LÔNA,45.9057915,6.1518081,node,13142341310
Annecy,restaurant,La testa dura,45.9445992,6.0718289,node,13149198946
Annecy,restaurant,Léon de Bruxelles,45.9353396,6.0795695,node,13170008163
Annecy,restaurant,Bleu de Toi,45.8989175,6.1275075,way,37205546
Annecy,restaurant,l'Alpin,45.8982352,6.1253353,way,40398553
Annecy,restaurant,Auberge de la Ferme de Ferrières,45.9647934,6.0812429,way,62399673
Annecy,restaurant,Sans nom,45.9265733,6.1626822,way,62488098
Annecy,restaurant,Restaurant Universitaire d'Annecy,45.9193778,6.1570859,way,62491584
Annecy,restaurant,Auberge sur les bois,45.9227193,6.1718411,way,62498450
Annecy,restaurant,Casa Nostra,45.9159843,6.1471645,way,62498771
Annecy,restaurant,Le Clocher,45.9200151,6.1420723,way,62500902
Annecy,restaurant,Bora Bora,45.9045318,6.159915,way,62505113
Annecy,restaurant,L'auberge d'Argonay,45.944845,6.1401774,way,62517256
Annecy,restaurant,La Détente,45.9386269,6.1339817,way,62517401
Annecy,restaurant,Le Viéran,45.914085,6.100359,way,62528324
Annecy,restaurant,O Planète,45.9374287,6.0795167,way,62547363
Annecy,restaurant,La Boucherie,45.9334682,6.0815858,way,62547499
Annecy,restaurant,La Brasserie Gourmande,45.9351563,6.0848258,way,62548579
Annecy,restaurant,Key West,45.9337444,6.0809697,way,62549079
Annecy,restaurant,Buffalo Grill,45.9294046,6.0835619,way,62549744
Annecy,restaurant,Sans nom,45.9353355,6.1077921,way,62644852
Annecy,restaurant,Au fil des jours,45.9315249,6.1199932,way,62645491
Annecy,restaurant,La Villa du Port,45.8810688,6.1759373,way,62948808
Annecy,restaurant,Buvette de la plage de la Brune,45.8791758,6.1755073,way,62952332
Annecy,restaurant,Auberge du lac,45.8817677,6.1746494,way,62953047
Annecy,restaurant,Adelita,45.8625523,6.1411226,way,70565739
Annecy,restaurant,Shangaï Bay,45.8546511,6.1432081,way,70565742
Annecy,restaurant,La Seiche,45.8459089,6.150668,way,70566396
Annecy,restaurant,L’Amnésie Sevrier,45.844678,6.1502866,way,70566693
Annecy,restaurant,Le Terracotta,45.8626551,6.1437776,way,70566916
Annecy,restaurant,La Fauconière,45.8773972,6.1414025,way,70569544
Annecy,restaurant,Les terrasses du lac,45.8841843,6.134469,way,70574323
Annecy,restaurant,Lac et montagne,45.8377944,6.169972,way,70595812
Annecy,restaurant,Restaurant de la Plage de Saint Jorioz - Chez Nous à la Plage,45.8436306,6.1724009,way,70598605
Annecy,restaurant,Rendez-vous des Chasseurs,45.9433468,6.0598073,way,87038390
Annecy,restaurant,Monte Bianco,45.9434368,6.0604292,way,87038866
Annecy,restaurant,La cantine bouillon,45.8801065,6.0969755,way,317218530
Annecy,restaurant,Les agapes,45.9414052,6.1489123,way,384294828
Annecy,restaurant,Sans nom,45.8638992,6.1867469,way,746328422
Annecy,restaurant,Palace beach restaurant,45.8541905,6.1883712,way,873066740
Annecy,restaurant,IT - Italian Trattoria,45.9037337,6.1242801,way,889285983
Annecy,restaurant,Bingo Sushi,45.9252798,6.1240765,way,946952731
Annecy,restaurant,Self,45.9377227,6.1335486,way,1032509245
Annecy,restaurant,Pizz'Annecy,45.9377923,6.0749992,way,1049540354
Annecy,restaurant,Le Candide,45.9371469,6.0744043,way,1049541339
Annecy,restaurant,Flunch,45.9372594,6.0740228,way,1049542260
Annecy,restaurant,Petit Self,45.9377239,6.1332704,way,1313941450
Annecy,restaurant,Grand Self,45.9376908,6.1336161,way,1313941451
Annecy,station,Annecy,45.902023,6.1207122,node,5061961433
Annecy,station,Pringy,45.9395669,6.1234176,node,7093491696
Annecy,historic,Croix des Cessenaz,45.8422221,6.1276818,node,267215490
Annecy,historic,Croix de Chuguet,45.8756948,6.1348944,node,364774158
Annecy,historic,Croix du Crêt,45.8692208,6.1327947,node,372823076
Annecy,historic,Notre-Dame du Vallon,45.8672614,6.1170336,node,409495557
Annecy,historic,Croix du Chef-Lieu,45.8603532,6.1314122,node,413998004
Annecy,historic,Monument aux combattants,45.9028873,6.1302037,node,421949179
Annecy,historic,Sans nom,45.8994683,6.1663456,node,470929830
Annecy,historic,Sans nom,45.8590842,6.1964549,node,1265044078
Annecy,historic,Sans nom,45.9638402,6.1485311,node,1400497182
Annecy,historic,Château de Promery,45.9545527,6.1133706,node,1430259417
Annecy,historic,Sans nom,45.9219424,6.1677648,node,1431123259
Annecy,historic,Sans nom,45.8742985,6.1414185,node,1455440380
Annecy,historic,Sans nom,45.9461943,6.1224409,node,1657590889
Annecy,historic,Souvenir de Mission 1935,45.9652566,6.1462354,node,1717373526
Annecy,historic,Sans nom,45.9652679,6.1462639,node,1717373534
Annecy,historic,Sans nom,45.9468636,6.1189444,node,2004732249
Annecy,historic,Le France,45.897655,6.149522,node,2366251593
Annecy,historic,Souvenir Français,45.8879307,6.0994103,node,2409615788
Annecy,historic,Sans nom,45.883545,6.0892159,node,2451416624
Annecy,historic,Sans nom,45.9246885,6.0983374,node,2519574344
Annecy,historic,Sans nom,45.8583749,6.2026679,node,2844144526
Annecy,historic,Sans nom,45.8832545,6.0835446,node,3220054688
Annecy,historic,Roman milestone,45.8819969,6.1404418,node,3259184225
Annecy,historic,Claude Louis Berthollet,45.8992611,6.132226,node,3822475193
Annecy,historic,Sans nom,45.8620326,6.0894307,node,4742767554
Annecy,historic,Sans nom,45.880514,6.0518575,node,4746761925
Annecy,historic,Croix Batailleur,45.9249556,6.1461713,node,4799325352
Annecy,historic,Stèle à la mémoire des combattants d'A.F.N.,45.9123692,6.1553549,node,4822974022
Annecy,historic,Site sublacustre du Petit Port,45.9048631,6.1547631,node,4963548708
Annecy,historic,Sans nom,45.9190789,6.1420491,node,4975651617
Annecy,historic,Gabriel Fauré,45.9186906,6.142959,node,5001530687
Annecy,historic,Sans nom,45.9188544,6.1353821,node,5014932663
Annecy,historic,Sans nom,45.9210479,6.1406731,node,5044909220
Annecy,historic,Sans nom,45.9215193,6.1706633,node,5044986023
Annecy,historic,Pilier de Boutae,45.9122664,6.120473,node,5115776582
Annecy,historic,Site archéologique des Marais,45.8351995,6.182852,node,5205047180
Annecy,historic,Site archéologique du Crêt-de-Chatillon,45.8603806,6.1554937,node,5205067587
Annecy,historic,Site archéologique des Mongets,45.8532446,6.1513106,node,5205083064
Annecy,historic,Site archéologique du Pâquier,45.9022036,6.1389633,node,5207293467
Annecy,historic,Monument Victor Curtat,45.9074417,6.123911,node,5579314291
Annecy,historic,Puits Saint-Jean,45.9007256,6.1260047,node,5842107603
Annecy,historic,Sans nom,45.9022083,6.1273469,node,5876978052
Annecy,historic,Sans nom,45.9388174,6.1063073,node,6437983145
Annecy,historic,Sans nom,45.859661,6.0529793,node,6474786916
Annecy,historic,Sans nom,45.9507356,6.1893979,node,6695862655
Annecy,historic,Mémorial Ecole Saint-Francois,45.9005949,6.1203003,node,6820331110
Annecy,historic,Mémorial Ecole Saint-François,45.9006657,6.1211604,node,6820331116
Annecy,historic,Buste du Docteur Claudius Gallet,45.8995676,6.1301552,node,6857367619
Annecy,historic,Mémorial Villa Mary 2è GM,45.9033145,6.1312531,node,6857367621
Annecy,historic,Plaque mémorial Abbé Camille Folliet Pasteur Paul Chappal,45.8992868,6.1257196,node,6908830908
Annecy,historic,Sans nom,45.9286496,6.1852515,node,6924580542
Annecy,historic,Mémorial Bataillon des Glières 1944,45.9341098,6.1897694,node,6924734424
Annecy,historic,Sans nom,45.9327624,6.1872243,node,6924736587
Annecy,historic,Monument aux Morts,45.9344372,6.1899551,node,6924750839
Annecy,historic,L'ancien Hôtel de Sales,45.900941,6.1263949,node,6945033798
Annecy,historic,Saint François de Sales,45.8977564,6.1292888,node,6945073831
Annecy,historic,Fondation 1610 Ordre Visitation sainte Marie,45.8973378,6.1303229,node,6945073833
Annecy,historic,Rocher du maquis,45.9619667,6.0559308,node,7006451514
Annecy,historic,Aux Espagnols morts pour la Liberté,45.9062381,6.1235019,node,7088258603
Annecy,historic,Mémorial Jacques Lespès,45.9081836,6.1245052,node,7088304157
Annecy,historic,Mémorial du corps franc Simon,45.9081699,6.1245004,node,7088304158
Annecy,historic,Sans nom,45.9269249,6.1309043,node,7088306032
Annecy,historic,Sans nom,45.8432993,6.0807915,node,7196051260
Annecy,historic,Sans nom,45.8435983,6.0838251,node,7196051261
Annecy,historic,Sans nom,45.8610097,6.1384799,node,7196343185
Annecy,historic,Sans nom,45.8949561,6.1670897,node,7251926001
Annecy,historic,Sans nom,45.8807171,6.0739508,node,7251928329
Annecy,historic,Sans nom,45.8766417,6.0836308,node,7251928330
Annecy,historic,Sans nom,45.8711887,6.085507,node,7251928331
Annecy,historic,Sans nom,45.8633967,6.086997,node,7251928332
Annecy,historic,Sans nom,45.8810859,6.0828986,node,7251928333
Annecy,historic,Sans nom,45.9455716,6.1403502,node,7277522537
Annecy,historic,Sans nom,45.9445552,6.1392975,node,7277522541
Annecy,historic,Grotte de Notre-Dame de Lourdes,45.945678,6.1407056,node,7280488499
Annecy,historic,Sans nom,45.8510742,6.050964,node,7291240452
Annecy,historic,Sans nom,45.9352993,6.187749,node,7295059863
Annecy,historic,Sans nom,45.934471,6.1899465,node,7295059882
Annecy,historic,Sans nom,45.9510568,6.199762,node,7295059883
Annecy,historic,Sans nom,45.9515715,6.1964173,node,7295059884
Annecy,historic,Sans nom,45.9522093,6.1895026,node,7295079085
Annecy,historic,Croix du Felan,45.9494392,6.1859035,node,7295079086
Annecy,historic,Sans nom,45.9470239,6.1781971,node,7295079087
Annecy,historic,Sans nom,45.8818339,6.0900896,node,7336968656
Annecy,historic,Sans nom,45.876022,6.1042245,node,7340760849
Annecy,historic,Sans nom,45.8668681,6.0946787,node,7340760884
Annecy,historic,Sans nom,45.8623141,6.084585,node,7340807360
Annecy,historic,Sans nom,45.8966143,6.0677766,node,7343113499
Annecy,historic,Sans nom,45.8826527,6.0696396,node,7343113504
Annecy,historic,Sans nom,45.8947308,6.1187904,node,7369294729
Annecy,historic,Sans nom,45.8808518,6.1022014,node,7386150134
Annecy,historic,Sans nom,45.9152457,6.0919879,node,7394687864
Annecy,historic,Sans nom,45.9257358,6.1385162,node,7406480211
Annecy,historic,Sans nom,45.8632756,6.1998659,node,7460290790
Annecy,historic,Sans nom,45.8693463,6.1883069,node,7460290791
Annecy,historic,Sans nom,45.8770609,6.1837069,node,7460290792
Annecy,historic,Sans nom,45.8818934,6.1793403,node,7460290793
Annecy,historic,Notre-Dame de Lourdes,45.9351371,6.1880722,node,7460331665
Annecy,historic,Sans nom,45.951759,6.1936136,node,7460331666
Annecy,historic,Sans nom,45.8750796,6.1032032,node,7477040187
Annecy,historic,Sans nom,45.8647621,6.082278,node,7486539231
Annecy,historic,Sans nom,45.836901,6.1573007,node,7685413746
Annecy,historic,Sans nom,45.9745274,6.1161147,node,7846539506
Annecy,historic,Sans nom,45.9670418,6.0890161,node,7862342075
Annecy,historic,Sans nom,45.8597904,6.0794722,node,7864419530
Annecy,historic,Sans nom,45.8607652,6.0822889,node,7864419535
Annecy,historic,Mémorial appel du 18 juin,45.9120036,6.1320639,node,7864755925
Annecy,historic,Commémoration Chapelle des Clarisses,45.8981645,6.1234357,node,7864971708
Annecy,historic,Mémorial 30è Régiment d'Infanterie,45.8973665,6.1255866,node,7865032062
Annecy,historic,Vieille Grotte de Chantemerle,45.8619661,6.1354347,node,7865669286
Annecy,historic,"Plaque commémorative Marcel Fournier, créateur de Carrefour",45.9012092,6.1224433,node,7899571652
Annecy,historic,Mémorial crash bombardier 2è GM,45.9088865,6.0965876,node,7899603376
Annecy,historic,Sans nom,45.9230175,6.1406103,node,8102774949
Annecy,historic,Sans nom,45.9332525,6.1887455,node,8286124794
Annecy,historic,Sans nom,45.9217355,6.0985692,node,8325784927
Annecy,historic,Ruines du Couvent de Sainte-Catherine,45.8708209,6.1128513,node,8399722226
Annecy,historic,Jean Bal,45.8328408,6.061844,node,8403289369
Annecy,historic,Sans nom,45.9009717,6.1057776,node,8406732586
Annecy,historic,Jean Moulin,45.9036651,6.1015675,node,8418289053
Annecy,historic,Sans nom,45.9740782,6.1168785,node,8517769506
Annecy,historic,Sans nom,45.9464109,6.1226289,node,8599798797
Annecy,historic,Sans nom,45.9590046,6.1973395,node,8610333888
Annecy,historic,Croix des Luzes,45.8347849,6.1280099,node,8629748639
Annecy,historic,Sans nom,45.9526279,6.1313518,node,8709519204
Annecy,historic,Sans nom,45.8825451,6.1836174,node,8783651373
Annecy,historic,Sans nom,45.9184816,6.0751042,node,8929251940
Annecy,historic,Sans nom,45.916444,6.0552156,node,8942727088
Annecy,historic,Sans nom,45.9239386,6.0620499,node,8942727108
Annecy,historic,Germain Sommeiller,45.9061673,6.1297207,node,9148151760
Annecy,historic,Sans nom,45.9114845,6.1286448,node,9150009220
Annecy,historic,Sans nom,45.9305225,6.0625684,node,9230934092
Annecy,historic,Sans nom,45.8920627,6.1891211,node,9233358028
Annecy,historic,Forêt du Cret du Maure,45.8895299,6.1294736,node,9405395162
Annecy,historic,À Ernest Guinier,45.8895094,6.1294568,node,9405395163
Annecy,historic,Sans nom,45.8998127,6.1261342,node,9410319970
Annecy,historic,Mur d'enceinte de la ville d'Annecy,45.9012162,6.1249875,node,9410343455
Annecy,historic,Sans nom,45.8334413,6.1640143,node,9574755541
Annecy,historic,Sans nom,45.9076292,6.072822,node,9646014020
Annecy,historic,Sans nom,45.9070831,6.0762732,node,9646014021
Annecy,historic,Sans nom,45.8326301,6.1623695,node,9658994934
Annecy,historic,Château de la Pesse,45.9171585,6.1559506,node,9682710228
Annecy,historic,Sans nom,45.9054987,6.143147,node,9949064664
Annecy,historic,Saint Martin,45.8699495,6.1429452,node,10020893407
Annecy,historic,Sans nom,45.9090635,6.096555,node,10267630957
Annecy,historic,Sans nom,45.9087209,6.1222279,node,10301283395
Annecy,historic,Sans nom,45.8895179,6.1345618,node,10559367976
Annecy,historic,Sans nom,45.9398874,6.137591,node,10579810100
Annecy,historic,Sans nom,45.8377444,6.0852796,node,10769860487
Annecy,historic,Sans nom,45.8314234,6.067086,node,10769870306
Annecy,historic,Sans nom,45.8320263,6.0600279,node,10769870309
Annecy,historic,Sans nom,45.8319807,6.0598079,node,10769870310
Annecy,historic,Sans nom,45.9683442,6.1721411,node,10844486063
Annecy,historic,Sans nom,45.9628384,6.1651123,node,11018375076
Annecy,historic,Sans nom,45.8498034,6.1407175,node,11149144776
Annecy,historic,Sans nom,45.8566269,6.1883154,node,11270066804
Annecy,historic,Sans nom,45.9225474,6.0634325,node,11333732253
Annecy,historic,Sans nom,45.9135045,6.053067,node,11384219026
Annecy,historic,Sans nom,45.8663019,6.121321,node,11426860050
Annecy,historic,Monument à la paix,45.8839704,6.0519275,node,11673300513
Annecy,historic,Croix de Lorraine,45.9156039,6.1456031,node,11751179827
Annecy,historic,Sans nom,45.8289773,6.1519063,node,11833506406
Annecy,historic,Sans nom,45.8639625,6.1424253,node,12086948972
Annecy,historic,Sans nom,45.8987074,6.1214693,node,12271398365
Annecy,historic,Sans nom,45.9061749,6.1060711,node,12272079587
Annecy,historic,Sans nom,45.9210291,6.0637633,node,12325698283
Annecy,historic,Reliquaire de saint François de Sales,45.8926251,6.1277587,node,12384642706
Annecy,historic,Reliquaire de sainte Jeanne de Chantal,45.8925081,6.1277928,node,12384642708
Annecy,historic,Sans nom,45.8701651,6.0924233,node,12394142092
Annecy,historic,Sans nom,45.9427283,6.1866247,node,12395936674
Annecy,historic,Saint François de Sales,45.942699,6.1866183,node,12395936675
Annecy,historic,Marc Le Roux,45.8985546,6.1312631,node,12413075321
Annecy,historic,Sans nom,45.8627155,6.1911672,node,12439091064
Annecy,historic,À Charles Bosson,45.904314,6.1408871,node,12449753633
Annecy,historic,Sans nom,45.9147563,6.1510989,node,12487910110
Annecy,historic,RAYMOND François,45.8906941,6.1411634,node,12505551115
Annecy,historic,Sans nom,45.8752438,6.1821662,node,12507302606
Annecy,historic,Sans nom,45.8616996,6.1975463,node,12507332698
Annecy,historic,Sans nom,45.9334038,6.1280967,node,12519106294
Annecy,historic,Sans nom,45.8815022,6.1802601,node,12539251753
Annecy,historic,Sans nom,45.9119305,6.1248201,node,12566001377
Annecy,historic,Sans nom,45.8911159,6.1393406,node,12590228699
Annecy,historic,Pose de la première pierre de l’IUP d’Annecy,45.9187911,6.157534,node,12629324616
Annecy,historic,Sans nom,45.9074496,6.1244298,node,12814031445
Annecy,historic,Sans nom,45.9074496,6.1244298,node,12814031446
Annecy,historic,Sans nom,45.9074496,6.1244298,node,12814031447
Annecy,historic,Sans nom,45.9074496,6.1244298,node,12814031448
Annecy,historic,Sans nom,45.8985523,6.1269514,node,12883230680
Annecy,historic,Sans nom,45.8992365,6.123712,node,12883230681
Annecy,historic,Sans nom,45.9399375,6.1064391,node,12898151110
Annecy,historic,Sans nom,45.9081358,6.1075857,node,13110255041
Annecy,historic,Sans nom,45.859672,6.1955283,node,13141625055
Annecy,historic,Sans nom,45.9108885,6.1454249,node,13157883034
Annecy,historic,Sans nom,45.8640797,6.1422861,node,13171237838
Annecy,historic,Grotte de Notre-Dame de Lourdes,45.8642309,6.1376383,node,13171237857
Annecy,historic,Sans nom,45.8623797,6.1384349,node,13173173958
Annecy,historic,Georges Grandchamp,45.8761637,6.1186605,node,13241252034
Annecy,historic,Sans nom,45.9148143,6.1458301,node,13277581378
Annecy,historic,Voie Romaine,45.9189035,6.200427,way,4805295
Annecy,historic,Château d'Annecy,45.8975492,6.1261941,way,24980106
Annecy,historic,L'Impérial,45.9035887,6.1446171,way,26184736
Annecy,historic,Manoir de Novel,45.9182936,6.1348136,way,30827049
Annecy,historic,Route Romaine,45.8562203,6.0736424,way,31525240
Annecy,historic,Route Romaine,45.8564396,6.0759703,way,31525242
Annecy,historic,Hôtel de Sales,45.9010972,6.1263534,way,37052432
Annecy,historic,Palais de l'Isle,45.8985763,6.1270145,way,37205550
Annecy,historic,Palais de l'Isle,45.8985463,6.1273591,way,37205553
Annecy,historic,Ancien Hôtel de Ville d'Annecy,45.8998598,6.1255502,way,37255162
Annecy,historic,Maison Lambert,45.8989493,6.1252324,way,37255837
Annecy,historic,Maison Gallo,45.8980814,6.1234733,way,40353270
Annecy,historic,Porte Saint-Clair,45.8979849,6.1235622,way,40353272
Annecy,historic,Sans nom,45.8980088,6.1274898,way,40434496
Annecy,historic,Sans nom,45.8972995,6.1227521,way,40525169
Annecy,historic,Château de Trésum,45.8934097,6.1313254,way,40950917
Annecy,historic,Chapelle de Colmyr,45.8898009,6.1394526,way,41019744
Annecy,historic,Château de la Cour,45.9226893,6.1421392,way,62491540
Annecy,historic,Château de Fésigny,45.8847578,6.1789791,way,62953746
Annecy,historic,Sans nom,45.9670249,6.2019841,way,86986105
Annecy,historic,Sans nom,45.9669821,6.2018614,way,86986883
Annecy,historic,Sans nom,45.8544273,6.1907754,way,420906528
Annecy,historic,Tombeau de Hippolyte Taine,45.854484,6.1908886,way,420906530
Annecy,historic,Le Vieux Moulin,45.9624553,6.1944562,way,871839217
Annecy,historic,Petit Pont Romain,45.9327942,6.1277749,way,892078137
Annecy,historic,Mémorial AFN de Haute-Savoie,45.9082215,6.1254972,way,981325186
Annecy,historic,Château de Menthon-Saint-Bernard,45.8639677,6.2035174,relation,174256
Annecy,historic,Château de Monthoux,45.9547388,6.1200968,relation,974255
Arles,museum,Musée de la Maison Romane,43.6769345,4.4310858,node,3549720940
Arles,museum,Musée Yves Brayer,43.7436927,4.794548,node,4442406048
Arles,museum,Maison du Riz,43.6136072,4.4547978,node,6002841722
Arles,museum,Conservatoire du santon provençal,43.6781148,4.6301021,node,6178341785
Arles,museum,Lee Ufan,43.6779567,4.6281607,node,11835929698
Arles,museum,Chapelle des Trinitaires,43.676316,4.6258436,node,11842349554
Arles,museum,Le Grenier à Olives,43.7239407,4.8003821,node,12715391506
Arles,museum,Le CERCO,43.673154,4.6390656,way,102077401
Arles,museum,Musée de la Camargue,43.624218,4.5286308,way,102094949
Arles,museum,Maison de la Transhumance,43.5965665,4.7887453,way,158387935
Arles,museum,Maison de la Crau,43.6370776,4.8061041,way,158402806
Arles,museum,Rétro Musée,43.6371605,4.805663,way,158403771
Arles,museum,Musée Paul Ricard,43.5697749,4.5025305,way,163448780
Arles,museum,Musée de l'eau,43.7600348,4.5070259,way,287072549
Arles,museum,Musée des Santons,43.7447407,4.7949958,way,446697908
Arles,museum,Musée Réattu,43.679281,4.6277462,relation,1451755
Arles,museum,Musée Arlaten,43.6766678,4.6261157,relation,1451761
Arles,museum,Musée de l'Arles antique,43.6727217,4.6163447,relation,5944281
Arles,park,Le Bois Francois,43.3930806,4.7915595,node,5320874710
Arles,park,Sans nom,43.4077749,4.7318678,node,5341440491
Arles,park,Sans nom,43.6353375,4.7960155,node,8169996802
Arles,park,Sans nom,43.7548609,4.4721186,way,41739034
Arles,park,Sans nom,43.7234231,4.8044744,way,176021664
Arles,park,Sans nom,43.7210488,4.7863657,way,205228881
Arles,park,Sans nom,43.6771958,4.43424,way,218624390
Arles,park,Sans nom,43.6823304,4.4347671,way,219639266
Arles,park,Parc du Moulin Peyre,43.6911332,4.8706998,way,245052251
Arles,park,Jardin du Petit Mas,43.6886739,4.8737181,way,245052254
Arles,park,Sans nom,43.6753482,4.6194723,way,277159349
Arles,park,Sans nom,43.6718872,4.6161335,way,300574496
Arles,park,Jardin public,43.6365591,4.8109212,way,374444265
Arles,park,Sans nom,43.741647,4.7884323,way,446788129
Arles,park,Parc de la Révolution,43.3878692,4.8006547,way,467736499
Arles,park,Sans nom,43.3843475,4.805649,way,467736504
Arles,park,Sans nom,43.6352858,4.7960164,way,499489340
Arles,park,Sans nom,43.6836425,4.6321738,way,500058333
Arles,park,Sans nom,43.7571353,4.5156684,way,501738325
Arles,park,Sans nom,43.7578072,4.5045021,way,501738326
Arles,park,Domaine de l'étang des Aulnes,43.597462,4.7872452,way,536874902
Arles,park,Sans nom,43.6393831,4.8098708,way,549914732
Arles,park,Sans nom,43.6983147,4.7897596,way,550400320
Arles,park,Sans nom,43.6983797,4.7877723,way,550400329
Arles,park,Sans nom,43.6979354,4.7894075,way,550400331
Arles,park,Sans nom,43.699315,4.7860585,way,550403795
Arles,park,Sans nom,43.6975733,4.7888573,way,550404528
Arles,park,Sans nom,43.7051858,4.7688158,way,550415668
Arles,park,Sans nom,43.7354418,4.7430229,way,551649622
Arles,park,Sans nom,43.6720489,4.615106,way,552007406
Arles,park,Sans nom,43.6538519,4.692834,way,553061690
Arles,park,Sans nom,43.416619,4.7317348,way,553332928
Arles,park,Sans nom,43.4182488,4.7343837,way,553336927
Arles,park,Sans nom,43.7196042,4.835769,way,554068423
Arles,park,Sans nom,43.6390437,4.8086129,way,557070095
Arles,park,clauzel,43.6710413,4.4279927,way,558332713
Arles,park,Tamaris,43.6723432,4.427034,way,558333020
Arles,park,Sans nom,43.6591091,4.8390826,way,604043715
Arles,park,Sans nom,43.6190829,4.6572512,way,650286192
Arles,park,Sans nom,43.745864,4.6544067,way,684944312
Arles,park,Sans nom,43.6679008,4.6105935,way,686650782
Arles,park,Sans nom,43.6676571,4.6108243,way,686650783
Arles,park,Sans nom,43.672916,4.642764,way,691307586
Arles,park,Sans nom,43.6710166,4.6373359,way,691311081
Arles,park,Sans nom,43.7260932,4.7141585,way,708212257
Arles,park,"La Verrerie, tiers-lieu culturel & citoyen",43.6817883,4.6207471,way,710727648
Arles,park,Sans nom,43.5674965,4.6678987,way,726949293
Arles,park,Sans nom,43.5088737,4.6681635,way,766323112
Arles,park,Sans nom,43.7246351,4.7805631,way,780557573
Arles,park,Sans nom,43.5707621,4.8201151,way,781620188
Arles,park,Sans nom,43.6729231,4.5979903,way,782192598
Arles,park,Sans nom,43.7056486,4.8666307,way,783091528
Arles,park,L'Ile aux loisirs,43.6485873,4.6394415,way,785075907
Arles,park,Sans nom,43.6942174,4.612188,way,790318163
Arles,park,Sans nom,43.6460264,4.7224139,way,896451234
Arles,park,Sans nom,43.6562681,4.6386317,way,928881807
Arles,park,Jardin Public Fernand Benoît,43.4119127,4.7295092,way,959116455
Arles,park,Sans nom,43.4100349,4.7275523,way,975910096
Arles,park,Institut Médico-Educatif les Abeilles,43.7223276,4.7190992,way,1054817193
Arles,park,Centre aéré l’Écureuil,43.7239372,4.7199284,way,1054818163
Arles,park,Jardin d'été,43.6756383,4.6303151,way,1128217045
Arles,park,Square des Anciens Combattants,43.6930544,4.868949,way,1162265556
Arles,park,Jardins de Quiqueran,43.742554,4.7948576,way,1171486289
Arles,park,Parc du Grand Gallègue,43.6852925,4.6111546,way,1444249170
Arles,park,Parc du Ponant,43.3967014,4.7944666,relation,10906771
Arles,park,Parc paysagé de la baisse de Raillon,43.6302534,4.7861158,relation,12267069
Arles,park,Espace de loisirs de la Baisse de Raillon,43.6343146,4.7941885,relation,14879797
Arles,park,Espace Benjamin Priaulet,43.7221486,4.8040443,relation,15845169
Arles,restaurant,La Medina,43.6788178,4.6199788,node,332189806
Arles,restaurant,La Pirate,43.4519489,4.4284933,node,510116610
Arles,restaurant,Bistrot des Canisses,43.725854,4.7082459,node,677813393
Arles,restaurant,La Câchette,43.6773891,4.6254464,node,1029953532
Arles,restaurant,La Cantine Végétale,43.6755869,4.625747,node,1030007981
Arles,restaurant,La Playa,43.4553728,4.4418555,node,1362712342
Arles,restaurant,Apostrophe Café,43.677683,4.627231,node,1416483516
Arles,restaurant,Le Bautezar,43.7441194,4.7951951,node,1450119955
Arles,restaurant,La Bergerie de Méjanes,43.5701862,4.5055994,node,1660001260
Arles,restaurant,LeRemake,43.452106,4.4271039,node,1660001261
Arles,restaurant,Le Tourne Broche,43.4519326,4.4272045,node,1660001269
Arles,restaurant,L'abbaye de Montmajour,43.7066232,4.6645765,node,1660321010
Arles,restaurant,Hôtel Le Cours,43.673455,4.4321486,node,1706911963
Arles,restaurant,La Halte Nautique,43.7446153,4.5207914,node,1871591875
Arles,restaurant,Chez Toni,43.6734019,4.4343105,node,1952180687
Arles,restaurant,Du Bar à l'Huitre,43.6773472,4.6267798,node,2122667398
Arles,restaurant,Bec Restaurant,43.7206691,4.7866104,node,2151749302
Arles,restaurant,Le Bistrot du Paradou,43.7204309,4.7848316,node,2151749405
Arles,restaurant,Le Resto de la Gare,43.6225299,4.8009505,node,2151968736
Arles,restaurant,Pizza Brun,43.7218516,4.8006756,node,2152011243
Arles,restaurant,Chez Mam Goz,43.6766192,4.6304142,node,2241171450
Arles,restaurant,Bibine & Ripaille,43.6751284,4.4315954,node,2401825298
Arles,restaurant,Sans nom,43.6746866,4.4317905,node,2401825303
Arles,restaurant,Sans nom,43.673651,4.4327978,node,2401825317
Arles,restaurant,La Restanque,43.6729395,4.4341583,node,2401825321
Arles,restaurant,Les Goûts orientaux,43.6796327,4.6307644,node,2486682704
Arles,restaurant,La Terrasse des Baux,43.743927,4.7949822,node,2929379148
Arles,restaurant,Du côté des olivades,43.7233878,4.7969882,node,3056980900
Arles,restaurant,Le Chiangmaiï,43.6356767,4.8145898,node,3118228772
Arles,restaurant,La Bodega,43.45204,4.4291853,node,3346369106
Arles,restaurant,La Siesta,43.4504992,4.4284026,node,3346369108
Arles,restaurant,Le Penequet,43.4506138,4.4293613,node,3346369109
Arles,restaurant,Lou Gabian,43.4516349,4.4302958,node,3346369111
Arles,restaurant,Le Baux Gourmand,43.7444188,4.7953718,node,3380969015
Arles,restaurant,Brasserie La Fontaine,43.452067,4.4277934,node,3717106760
Arles,restaurant,La Grange,43.4518477,4.4266621,node,3717106762
Arles,restaurant,La Maison de Jeanne,43.4518161,4.4271573,node,3717106763
Arles,restaurant,Le Napoli,43.451982,4.428248,node,3717250823
Arles,restaurant,La Chassagnette,43.5676344,4.6674351,node,3810989002
Arles,restaurant,Au bonheur d'Emilie,43.6774768,4.6250552,node,3829998133
Arles,restaurant,Le Plaza,43.6782607,4.6263833,node,4265707058
Arles,restaurant,L'Oustaù de Baumanière,43.7470213,4.7955483,node,4462926857
Arles,restaurant,La Cabro d'Or,43.740138,4.7873357,node,4462926858
Arles,restaurant,La Reine Jeanne,43.7449176,4.7953632,node,4706506992
Arles,restaurant,La bella vista,43.7440063,4.794764,node,4706506994
Arles,restaurant,Au Porte Mages,43.7449226,4.7956016,node,4706641761
Arles,restaurant,Les Saladelles,43.4144054,4.734673,node,4729240350
Arles,restaurant,Le Criquet,43.6763869,4.630598,node,4798785428
Arles,restaurant,L'Escaladou,43.6763271,4.6305807,node,4798788892
Arles,restaurant,La bouvine,43.4519165,4.4269125,node,4876392525
Arles,restaurant,La taverne Italienne,43.4521459,4.4270132,node,4876392622
Arles,restaurant,Le Rouget,43.451303,4.4264997,node,4876402321
Arles,restaurant,La Casita,43.4507916,4.4271858,node,4876452521
Arles,restaurant,Les flots bleus,43.4510263,4.4266439,node,4876455825
Arles,restaurant,Les Salicornes,43.5738403,4.622833,node,4880159621
Arles,restaurant,Le Mazet du Vaccarès,43.5577623,4.490796,node,4880159622
Arles,restaurant,Les Embruns,43.4504401,4.4297648,node,4880364721
Arles,restaurant,La Mama Sita,43.4508009,4.4298066,node,4881632728
Arles,restaurant,Le Fournelet,43.4508156,4.4301099,node,4881632729
Arles,restaurant,Memphis,43.6513638,4.6694516,node,4938177333
Arles,restaurant,Café de la Roquette,43.6767024,4.6232075,node,4979366188
Arles,restaurant,La Placette,43.6769327,4.6235569,node,4979366189
Arles,restaurant,Páou,43.6767074,4.6234877,node,4979366199
Arles,restaurant,Vivotto,43.6768982,4.6248398,node,4979405911
Arles,restaurant,Arles Pizza,43.6769586,4.6237515,node,4979405914
Arles,restaurant,Romarin,43.4521974,4.4267865,node,4992109149
Arles,restaurant,L'Esperado,43.4510275,4.4264491,node,4992109150
Arles,restaurant,Le Mistral,43.4508011,4.4263977,node,4992109151
Arles,restaurant,L'Estanco,43.4516879,4.426607,node,4992109152
Arles,restaurant,L'Escaladou,43.4516182,4.4269824,node,4992635407
Arles,restaurant,Ô Pica Pica,43.4504105,4.4275753,node,4995950887
Arles,restaurant,Le Camargue,43.450853,4.4281966,node,4995950893
Arles,restaurant,La Cabane aux Coquillages,43.4504134,4.4276533,node,4995950894
Arles,restaurant,La Laupio,43.4505251,4.4279406,node,4995950895
Arles,restaurant,Le Bistrot de l'Église,43.4514506,4.4281758,node,5184858429
Arles,restaurant,L’entrevue,43.6784883,4.6248283,node,5205926635
Arles,restaurant,La Chamade,43.4504114,4.427836,node,5255624221
Arles,restaurant,La Tour de Pise,43.6758533,4.6261361,node,5281652279
Arles,restaurant,L'ingénu,43.6799334,4.6317509,node,5281778341
Arles,restaurant,La Bergerie Provencale,43.6489321,4.7051534,node,5299700181
Arles,restaurant,Le Bistrot de Mogador,43.7355997,4.742256,node,5327934619
Arles,restaurant,Chez Vincent,43.6450349,4.716257,node,5350859487
Arles,restaurant,Chez Marco,43.6374319,4.8074609,node,5351512223
Arles,restaurant,Hoi-An,43.6375885,4.80791,node,5351530782
Arles,restaurant,Le Saint'M,43.6383427,4.8101995,node,5351544536
Arles,restaurant,Café de la Fontaine,43.7208247,4.8052232,node,5470513475
Arles,restaurant,Au Bistrot Marin,43.7208489,4.80514,node,5470517582
Arles,restaurant,O'fil de l'eau,43.6379401,4.8094034,node,5552059641
Arles,restaurant,Une Table au Soleil,43.7434161,4.7946185,node,5703880523
Arles,restaurant,Saveurs et Terroirs,43.6774468,4.6301035,node,5703904922
Arles,restaurant,El Paséo,43.67799,4.6269239,node,5729002362
Arles,restaurant,Le Galoubet,43.6782434,4.6268683,node,5729002363
Arles,restaurant,Le Bistro Arlésrien,43.6777839,4.6272077,node,5731740607
Arles,restaurant,Mezza Luna,43.6778751,4.6270347,node,5731740608
Arles,restaurant,Pizza di Napoli,43.6330441,4.8044083,node,5757210505
Arles,restaurant,La petite table,43.6806799,4.6313889,node,5814613753
Arles,restaurant,Cuisine de comptoir,43.6778202,4.6263733,node,5825254253
Arles,restaurant,Cuit Cuit,43.6783048,4.6276008,node,5981777605
Arles,restaurant,Brasserie des arènes,43.4504438,4.4272557,node,6002816012
Arles,restaurant,Le rendez-vous,43.6426339,4.7970974,node,6111102143
Arles,restaurant,Izakayan,43.6809102,4.6314216,node,6113889082
Arles,restaurant,Euro d'Asie,43.6641186,4.6395831,node,6116862899
Arles,restaurant,A Côté Le Bistro,43.675796,4.6268788,node,6126976475
Arles,restaurant,Salle à manger,43.6758183,4.6271089,node,6126976476
Arles,restaurant,Le Café de la place,43.6757394,4.6262003,node,6126988846
Arles,restaurant,Enjoy Tacos,43.6753036,4.6265254,node,6126994298
Arles,restaurant,Café Belini,43.6754113,4.6274045,node,6126996776
Arles,restaurant,Lib'En Arles,43.6808304,4.6314061,node,6139968447
Arles,restaurant,Le Vietnam,43.6808641,4.6311445,node,6139968449
Arles,restaurant,Menara,43.6804227,4.6313352,node,6139984636
Arles,restaurant,Le Cochon qui fume,43.6800865,4.6309173,node,6140017216
Arles,restaurant,Le Ginestre,43.6796666,4.6317227,node,6140017220
Arles,restaurant,La Maison du Mochi,43.6784527,4.627904,node,6140724514
Arles,restaurant,Pizza Moulin's,43.6449393,4.718537,node,6142324502
Arles,restaurant,Le Vingt-Quatre,43.6750083,4.6354253,node,6147018743
Arles,restaurant,Les Ateliers,43.6746558,4.6350457,node,6147018745
Arles,restaurant,All'Oro,43.676485,4.6254008,node,6153576661
Arles,restaurant,L'Autruche,43.6764187,4.6253821,node,6153576662
Arles,restaurant,Lou Marquès,43.6749185,4.6282548,node,6165849235
Arles,restaurant,Jardin des Arts,43.676458,4.6258102,node,6166963727
Arles,restaurant,La Maison des Gourmants,43.6769785,4.6306328,node,6178367296
Arles,restaurant,Chez Félix,43.6769749,4.6310522,node,6178367298
Arles,restaurant,Sakura,43.6769793,4.6309792,node,6178367299
Arles,restaurant,Les Collectionneurs,43.6532267,4.6825309,node,6217157362
Arles,restaurant,Chez Toinou,43.3854063,4.8053095,node,6455896713
Arles,restaurant,Brasserie les Pins,43.3876689,4.8025067,node,6455960164
Arles,restaurant,Mas Saint Bertrand,43.4488329,4.6614848,node,6482067186
Arles,restaurant,Palace grill,43.637918,4.8093046,node,6513213749
Arles,restaurant,Casa Marina,43.4510171,4.4308515,node,6596578102
Arles,restaurant,Gaudina,43.6777384,4.627812,node,6621123181
Arles,restaurant,La Cuisine de Daudet,43.7260909,4.71428,node,6654737613
Arles,restaurant,La Salsa,43.4515982,4.4271784,node,6720600067
Arles,restaurant,L'Épicerie du Cloître,43.6759658,4.6285537,node,6727069552
Arles,restaurant,i Cocorrico !,43.6760484,4.6304333,node,6727082406
Arles,restaurant,Le pueblo,43.5852605,4.4575139,node,6776736886
Arles,restaurant,Le Patio des Alyscamps,43.67339,4.6325297,node,6820038985
Arles,restaurant,La Casa Romana,43.4523194,4.4278556,node,6821695685
Arles,restaurant,Kaly Sushi,43.7037938,4.6440508,node,6863551313
Arles,restaurant,Emilie and the Cool Kids,43.7051258,4.6444381,node,6863608263
Arles,restaurant,Chez Etienne,43.7051944,4.6439276,node,6863679722
Arles,restaurant,La Meunerie,43.7055069,4.6443081,node,6863710920
Arles,restaurant,Sans nom,43.7055338,4.6439691,node,6863710923
Arles,restaurant,La Taverne du Forum,43.6778677,4.6271495,node,6919657818
Arles,restaurant,Pitalito,43.6777579,4.6275501,node,6919776021
Arles,restaurant,Bodeguita,43.6776545,4.6276975,node,6919776022
Arles,restaurant,Goûts et saveurs du midi,43.6762701,4.4312277,node,6927587085
Arles,restaurant,Jaipur Palace,43.676192,4.6304967,node,7054329269
Arles,restaurant,La Telline,43.5779201,4.621604,node,7061418749
Arles,restaurant,Le By Pass,43.4147137,4.7344032,node,7074407978
Arles,restaurant,Le Bigouden,43.675702,4.6257839,node,7078361586
Arles,restaurant,La Mule Blanche,43.6760285,4.6263763,node,7078377719
Arles,restaurant,Inari,43.6798994,4.6310439,node,7080641015
Arles,restaurant,L'oriental,43.6805662,4.6313598,node,7080641016
Arles,restaurant,Sô Sushi,43.6754229,4.6275262,node,7080801646
Arles,restaurant,Le Petit Arles,43.6772363,4.6278336,node,7084629457
Arles,restaurant,Dim-Mui,43.677443,4.6277137,node,7101090866
Arles,restaurant,Pia,43.6752624,4.6262266,node,7105340781
Arles,restaurant,La Comédie,43.675267,4.6260346,node,7105361877
Arles,restaurant,Café George,43.6753124,4.6257357,node,7105413109
Arles,restaurant,La Succulente,43.6793662,4.631079,node,7107793965
Arles,restaurant,Volubilis,43.678797,4.6308776,node,7107817189
Arles,restaurant,L'Hostellerie des Arènes,43.6783924,4.6315805,node,7107820767
Arles,restaurant,Crok'Panda,43.6795996,4.6309725,node,7107838888
Arles,restaurant,Le Pitchounet,43.6797351,4.6310069,node,7107838889
Arles,restaurant,L'Oriel,43.6775697,4.6264452,node,7122952182
Arles,restaurant,La Caravelle,43.6790759,4.6267524,node,7137263689
Arles,restaurant,La Gueule du Loup,43.6777369,4.6279747,node,7137515909
Arles,restaurant,Chardon,43.6777182,4.6280828,node,7137528082
Arles,restaurant,Chez ta Mère,43.6778407,4.627524,node,7137530664
Arles,restaurant,La Bohême,43.6769589,4.6265356,node,7138765344
Arles,restaurant,Chez Fabrice,43.6388019,4.8162198,node,7147642316
Arles,restaurant,Le Restaurant Pluvinel,43.7091214,4.8072775,node,7286408976
Arles,restaurant,Le Bistrot du Marché,43.3878201,4.8079544,node,7432977498
Arles,restaurant,Le Constantin,43.6787599,4.627505,node,7762465072
Arles,restaurant,N'Apo,43.6775699,4.6272446,node,7788067027
Arles,restaurant,Le Jardin Secret,43.6731537,4.4319091,node,7791952110
Arles,restaurant,Crêperie La Terre Est Ronde,43.7541631,4.5138636,node,7844725057
Arles,restaurant,Le Bouchon Rouge,43.7433751,4.7948237,node,7885097090
Arles,restaurant,Aki Poke,43.6767726,4.6251332,node,8013732747
Arles,restaurant,L'Ami Provençal,43.7263429,4.70936,node,8578779562
Arles,restaurant,Le Bistro Populaire,43.6769899,4.6312759,node,8892432655
Arles,restaurant,Le Gard'Manger,43.754116,4.5137378,node,8927626865
Arles,restaurant,Sans nom,43.7451777,4.7995562,node,9015414981
Arles,restaurant,Les Baux Jus,43.7442433,4.7949844,node,9029685886
Arles,restaurant,La Camarque,43.4100203,4.7269743,node,9031317116
Arles,restaurant,Brasserie L'Arôme,43.674776,4.6328558,node,9236079048
Arles,restaurant,Dans la Cuisine,43.6768143,4.6429625,node,9287745896
Arles,restaurant,La Péniche,43.6800218,4.6242963,node,9352451460
Arles,restaurant,Ô Pat'Thaï,43.6796692,4.6308767,node,9379892469
Arles,restaurant,Dune,43.678816,4.6280938,node,9380024518
Arles,restaurant,Du début à la faim,43.6761681,4.6260426,node,9555793746
Arles,restaurant,Le Clos Saint Roch,43.7205489,4.8073919,node,9602520476
Arles,restaurant,Pizza KBO,43.4101387,4.7264989,node,9657797317
Arles,restaurant,Le Forum,43.6493607,4.6382019,node,9673936623
Arles,restaurant,Café Restaurant de l'Avenir,43.5587602,4.7277741,node,9707558899
Arles,restaurant,L'Embuscadère,43.4508279,4.4306614,node,9727008941
Arles,restaurant,La Cuisine au Planet,43.7264153,4.7074211,node,9763839719
Arles,restaurant,La ginguette aux perroquets,43.5511111,4.7240842,node,9796572008
Arles,restaurant,Chez Nina,43.4150464,4.7344716,node,9813016630
Arles,restaurant,QG,43.6799614,4.6307686,node,9831564069
Arles,restaurant,O Jinko,43.6767956,4.6231991,node,9859125220
Arles,restaurant,Pizzeria La Mamma,43.6792791,4.630293,node,9862769997
Arles,restaurant,La Pergula,43.6763942,4.6304622,node,9862769998
Arles,restaurant,Le Médina,43.676858,4.6236705,node,9864323477
Arles,restaurant,Family's Pizza,43.6408665,4.7973652,node,9967410770
Arles,restaurant,Padthai-ya,43.6412812,4.7971429,node,10066478325
Arles,restaurant,Ho Sushi,43.6412607,4.7972456,node,10066478326
Arles,restaurant,Le Maquis Akwaba,43.6769882,4.6306758,node,10221759902
Arles,restaurant,Pizza Vero,43.6436714,4.8186837,node,10253080911
Arles,restaurant,La Fabrique Des Sens,43.4522572,4.4334703,node,10282352209
Arles,restaurant,Sotheary,43.6794938,4.6309604,node,10314514434
Arles,restaurant,L'Arlatan,43.6784029,4.6270921,node,10779331301
Arles,restaurant,L'antonelle,43.6769807,4.624335,node,10792196302
Arles,restaurant,Le Gibolin,43.6769522,4.6241589,node,10792226614
Arles,restaurant,Maussane-les-Alpilles,43.7215842,4.8031157,node,10812417505
Arles,restaurant,Le Commerce,43.6897065,4.8707466,node,10814887769
Arles,restaurant,La casa de Pizza,43.6891523,4.8713468,node,10814896870
Arles,restaurant,Song Long,43.6890376,4.8717839,node,10815012576
Arles,restaurant,Bar Hôtel Restautant L'Agachon,43.6097333,4.4772601,node,10816738958
Arles,restaurant,Le Flamant Rose,43.6115734,4.475631,node,10816814334
Arles,restaurant,Pizzeria de la Tour,43.3852386,4.805219,node,10912061191
Arles,restaurant,Le Comptoir des Gourmands,43.3869555,4.8061814,node,10914573427
Arles,restaurant,Rest'O Bout du Monde,43.3870139,4.8063155,node,10914668265
Arles,restaurant,Crêperie du Port,43.3868659,4.8060873,node,10914713920
Arles,restaurant,Sushi Bar,43.3868304,4.8059482,node,10914713921
Arles,restaurant,Sans nom,43.3851477,4.8050089,node,10916572920
Arles,restaurant,La Guinguette des Baux,43.7493522,4.7954229,node,10989217178
Arles,restaurant,Chez Adrien,43.7265491,4.7084782,node,10998263813
Arles,restaurant,Monstre,43.6770994,4.6256171,node,11012962805
Arles,restaurant,La Table du Meunier,43.7264913,4.710328,node,11044441485
Arles,restaurant,Sans nom,43.6929561,4.6109069,node,11069711479
Arles,restaurant,Lulu's Kitchen,43.6762535,4.6305156,node,11159221106
Arles,restaurant,Snack Camargue,43.4520895,4.4271985,node,11240491343
Arles,restaurant,Lou Planet Provençal,43.451885,4.4269942,node,11240491344
Arles,restaurant,Le Cabanon,43.6976118,4.6354353,node,11336261435
Arles,restaurant,Krystal,43.6657036,4.7492517,node,11336333314
Arles,restaurant,Côté Jardin,43.4507046,4.4263849,node,11741698166
Arles,restaurant,L'Apsara,43.6794422,4.6315523,node,11892105869
Arles,restaurant,Le Chalut,43.4524036,4.4270483,node,11893549570
Arles,restaurant,L'escaluna,43.4523306,4.4268637,node,11893549571
Arles,restaurant,La Cour,43.4522445,4.4268425,node,11893549572
Arles,restaurant,Coco Fuego,43.4523466,4.4269909,node,11893562570
Arles,restaurant,Andaluz,43.4526562,4.4272886,node,11893564769
Arles,restaurant,A fleur de sel,43.4524899,4.4271629,node,11893564770
Arles,restaurant,Le Miramar,43.4505882,4.4263587,node,11893564771
Arles,restaurant,La Bohème,43.4516375,4.4282689,node,11894822470
Arles,restaurant,Hosteria,43.4509041,4.4273474,node,11894823073
Arles,restaurant,Le Delta,43.4523367,4.4282149,node,11895170269
Arles,restaurant,Colosseo Pinsa Romana,43.6781243,4.6316601,node,11895544069
Arles,restaurant,Mon Chou,43.6799561,4.6314112,node,11895548169
Arles,restaurant,Le Chante Clair,43.4521839,4.4275422,node,11899275570
Arles,restaurant,Le Tamaris,43.4523386,4.4276579,node,11899284970
Arles,restaurant,Nord-Pinus,43.6773832,4.6269576,node,11940206009
Arles,restaurant,Le Patio,43.7279029,4.7123419,node,11953197591
Arles,restaurant,L'O à la bouche,43.680757,4.6313927,node,11967543843
Arles,restaurant,La Caye,43.677553,4.6265963,node,12041354669
Arles,restaurant,Oboulaba,43.6769341,4.631114,node,12099562101
Arles,restaurant,Sans nom,43.4124003,4.740108,node,12234347855
Arles,restaurant,Meinado,43.6750923,4.6246195,node,12388655447
Arles,restaurant,La Pause du Port,43.6746107,4.435381,node,12626641001
Arles,restaurant,Le saint Pierre,43.6803865,4.6217365,node,12686573667
Arles,restaurant,Gestion de patrimoine à Arles,43.6674997,4.6237576,node,12704416707
Arles,restaurant,Dim-Mui,43.6774552,4.6277262,node,12722366101
Arles,restaurant,4M,43.618506,4.79455,node,12757793533
Arles,restaurant,L'espianada restaurant sarde,43.7219393,4.8001129,node,12765476001
Arles,restaurant,La Rumba,43.4518049,4.4266449,node,12806176601
Arles,restaurant,Le Petit Rocher,43.7433241,4.7947549,node,12862414121
Arles,restaurant,Le Café du Musée,43.744059,4.7951897,node,12862451327
Arles,restaurant,RoadHouse en Camargue,43.4551078,4.433698,node,12873937020
Arles,restaurant,Le Clément IV,43.6742259,4.4350347,node,13040979469
Arles,restaurant,Sans nom,43.6854341,4.6339795,node,13128049598
Arles,restaurant,La braise de mer,43.4504445,4.4271584,node,13189074549
Arles,restaurant,Pizzeria Chez Robert,43.680006,4.6199565,node,13261689977
Arles,restaurant,Le Coin des Amis,43.7269188,4.7108607,node,13264504653
Arles,restaurant,Le Vallon de Gayet,43.6997812,4.8640276,way,101444060
Arles,restaurant,Aux délices des Alpilles,43.7207767,4.8095503,way,101449865
Arles,restaurant,Aux Ateliers « Chez Franck et Flo »,43.7203203,4.8103143,way,101451641
Arles,restaurant,Grand Café Malarte,43.6754923,4.628215,way,102063909
Arles,restaurant,L'Atelier,43.6759616,4.6269836,way,102064258
Arles,restaurant,Noemys,43.6654624,4.6334911,way,102074332
Arles,restaurant,La Guinguette Arlésienne,43.6309548,4.7432624,way,102075937
Arles,restaurant,Sans nom,43.438647,4.6722501,way,102088608
Arles,restaurant,Buffalo Grill,43.6630071,4.6369338,way,102092419
Arles,restaurant,La Civette Portagnel,43.6782755,4.6334402,way,102101650
Arles,restaurant,Siècle d'Or,43.6649018,4.6443562,way,102103179
Arles,restaurant,La Bastide,43.6506658,4.6424303,way,102107260
Arles,restaurant,Le Saint Laurent,43.6627173,4.6385161,way,102109772
Arles,restaurant,Le Réfectoire,43.6745255,4.6353013,way,102110656
Arles,restaurant,Mécha Uma,43.677605,4.6274629,way,102116363
Arles,restaurant,La Lagune,43.3870917,4.849645,way,109129417
Arles,restaurant,Yacht Club Restaurant,43.385487,4.8340725,way,109129734
Arles,restaurant,Au duo,43.3885863,4.8108408,way,109133230
Arles,restaurant,Le Passeport,43.3838055,4.8067635,way,109134551
Arles,restaurant,La Guinguette Du Pont De Broussant,43.7356462,4.4806681,way,287069419
Arles,restaurant,Le Patio de Camargue,43.6676646,4.6107328,way,318184027
Arles,restaurant,Tonton Gust,43.6286221,4.8009771,way,499654041
Arles,restaurant,Roulotte-Snack,43.7231758,4.7183543,way,550390331
Arles,restaurant,Del Arte,43.6677615,4.6357323,way,597051888
Arles,restaurant,Le Cabanon,43.3849387,4.8046219,way,688453231
Arles,restaurant,Drum Café,43.6744148,4.6369565,way,700884849
Arles,restaurant,Parc des Cordes,43.7096748,4.6839676,way,779929192
Arles,restaurant,Les Filles d'à côté,43.707295,4.6439115,way,1051585626
Arles,restaurant,La Pataterie,43.6655783,4.6385119,way,1051904765
Arles,station,Arles,43.6848994,4.6322332,node,10933963119
Arles,station,Saint-Martin-de-Crau,43.6221642,4.8004947,node,10936277754
Arles,station,Fontvieille,43.728478,4.706596,way,102090996
Arles,historic,Monument aux morts,43.3870174,4.8039568,node,534459711
Arles,historic,Monument Docteur Paolantonacci,43.3898599,4.8014653,node,534459750
Arles,historic,Sans nom,43.4496097,4.4275871,node,669997974
Arles,historic,La Vieille Font,43.725784,4.7002512,node,674759097
Arles,historic,Cimetière,43.7292176,4.7142039,node,674768575
Arles,historic,Sans nom,43.7239347,4.6916754,node,678874765
Arles,historic,Tour,43.7257954,4.7018003,node,679076586
Arles,historic,Buste de César,43.6774246,4.6192791,node,1029978597
Arles,historic,Abbaye de Montmajour,43.7059437,4.6642559,node,1327818364
Arles,historic,Sans nom,43.7215509,4.8053371,node,1838089753
Arles,historic,Saint-Élois,43.7176917,4.8070809,node,1887461396
Arles,historic,Sans nom,43.3876078,4.8497896,node,2429010648
Arles,historic,Sans nom,43.4499666,4.4263672,node,2429201283
Arles,historic,Sans nom,43.450418,4.4280711,node,2429201287
Arles,historic,Sans nom,43.4517326,4.4271801,node,2429201304
Arles,historic,Sans nom,43.4523774,4.4286998,node,2429201320
Arles,historic,Sans nom,43.6776201,4.6320844,node,3127937833
Arles,historic,Porterie du grand couvent,43.6762266,4.6316493,node,3127937836
Arles,historic,Sans nom,43.6778475,4.6325911,node,3127937837
Arles,historic,Sainte-Geneviève,43.7275523,4.6232213,node,3244963212
Arles,historic,Tours de Castillon,43.704697,4.7894001,node,3707991038
Arles,historic,Sans nom,43.4511988,4.4278932,node,3717106768
Arles,historic,Sans nom,43.452209,4.4283559,node,3717258755
Arles,historic,Sans nom,43.4522853,4.4285653,node,3718806512
Arles,historic,Équipages alliés,43.6554656,4.7673092,node,3824891823
Arles,historic,Monument Jaubert,43.7289569,4.7370147,node,3826571559
Arles,historic,Carré des Zouaves,43.6771131,4.6337753,node,4076789982
Arles,historic,Sans nom,43.6770733,4.633892,node,4076804584
Arles,historic,Les Cryptoportiques,43.6767939,4.6274309,node,4286186489
Arles,historic,Hôtel Laurens de Beaujeu,43.6767757,4.6256985,node,4323512915
Arles,historic,Sans nom,43.677188,4.6272756,node,4323512916
Arles,historic,Hôtel de la tour du Brau,43.7431632,4.7943993,node,4337116888
Arles,historic,Sans nom,43.5657676,4.5772548,node,4367543318
Arles,historic,Sans nom,43.567343,4.5783226,node,4367543319
Arles,historic,Croix de Méjanes,43.5695455,4.5029394,node,4367543320
Arles,historic,Sans nom,43.7443767,4.7945229,node,4439356175
Arles,historic,Sans nom,43.7440483,4.7943164,node,4439356504
Arles,historic,Sans nom,43.7451368,4.7954459,node,4439356579
Arles,historic,Esplanade du château,43.7423159,4.7949242,node,4442406047
Arles,historic,Chapelle Saint-Victor (restes),43.7172136,4.6942413,node,4879752644
Arles,historic,Croix du cimetière,43.7225726,4.7859192,node,4880054093
Arles,historic,École du Lau,43.6793712,4.629965,node,5027129074
Arles,historic,Ancienne Abbaye,43.6765234,4.4317484,node,5027129075
Arles,historic,Sans nom,43.6450182,4.7175117,node,5299352540
Arles,historic,Sans nom,43.6650001,4.6478612,node,5339224013
Arles,historic,Sans nom,43.6793489,4.4324718,node,5418609728
Arles,historic,Gilbert le Roy,43.457508,4.4470114,node,5426745169
Arles,historic,Sans nom,43.4535008,4.4364081,node,5431356603
Arles,historic,Aqueduc Romain des Alpilles,43.6760675,4.6330586,node,5444117951
Arles,historic,Aqueduc Romain des Alpilles,43.6763028,4.6326572,node,5446727049
Arles,historic,Oratoire Saint-Roch et Saint-Victor,43.7202707,4.6974157,node,5490841455
Arles,historic,Oratoire Notre-Dame,43.7285307,4.7383037,node,5490841456
Arles,historic,Autel de la Coquille,43.7266831,4.7437278,node,5494458753
Arles,historic,Grotte-Dolmen de la Source,43.7093443,4.6848723,node,5494581587
Arles,historic,Dolmen de la Mérindole,43.6976151,4.7422609,node,5494581588
Arles,historic,Dolmen dit du Mas d'Agard,43.7038028,4.7138335,node,5494581589
Arles,historic,Sans nom,43.6369997,4.8015861,node,5545790330
Arles,historic,Le jardin de la Paix,43.7346047,4.8366555,node,5918023209
Arles,historic,Vestige du forum,43.6774121,4.6270617,node,6102492822
Arles,historic,Sans nom,43.6852307,4.6320512,node,6102571611
Arles,historic,Sans nom,43.4144453,4.7313416,node,6427516930
Arles,historic,Sans nom,43.7576084,4.5157342,node,6600189415
Arles,historic,Sans nom,43.7082566,4.5473957,node,6622394272
Arles,historic,Memorial,43.7027078,4.568487,node,6632923877
Arles,historic,Le vilage de la Capelière,43.5324914,4.6464166,node,6815949478
Arles,historic,Crypte Saint-Benoit,43.7056299,4.6643355,node,7086058496
Arles,historic,Chaland Arles-Rhône 3,43.6766284,4.6174415,node,7179650971
Arles,historic,Sans nom,43.731669,4.6942274,node,7294022942
Arles,historic,bassin de convergence des aqueducs,43.7059556,4.7217867,node,7666464912
Arles,historic,Epave de peniche en bois,43.7012262,4.612801,node,8190643083
Arles,historic,Sans nom,43.7206594,4.7861559,node,8809194195
Arles,historic,Sans nom,43.7244524,4.7842189,node,8809286786
Arles,historic,Sans nom,43.724088,4.7778315,node,8809295248
Arles,historic,Ancienne abbaye d'Ulmet,43.4658637,4.6346348,node,8818809013
Arles,historic,Sans nom,43.6459599,4.7127358,node,8857471685
Arles,historic,Sans nom,43.7141499,4.7796196,node,8857643714
Arles,historic,Sans nom,43.7180212,4.783888,node,8857676035
Arles,historic,La Vierge Noire,43.7430692,4.7929582,node,8883606570
Arles,historic,Sans nom,43.6920858,4.6114329,node,8931101294
Arles,historic,Sans nom,43.6947297,4.6098948,node,8931131056
Arles,historic,Sans nom,43.694826,4.6098084,node,8931131057
Arles,historic,Sans nom,43.6949855,4.6097159,node,8931131058
Arles,historic,Sans nom,43.6951269,4.6096585,node,8931131059
Arles,historic,Sans nom,43.6952864,4.609566,node,8931131060
Arles,historic,Sans nom,43.6958272,4.6093149,node,8931131061
Arles,historic,Sans nom,43.6960205,4.6092184,node,8931131062
Arles,historic,Sans nom,43.6961866,4.6091432,node,8931131063
Arles,historic,Sans nom,43.6963526,4.6090649,node,8931131064
Arles,historic,Sans nom,43.6965026,4.6089938,node,8931131065
Arles,historic,Charloun Rieu,43.7414767,4.7935883,node,9098595417
Arles,historic,2.06,43.6546057,4.7884343,node,9169984729
Arles,historic,21.40,43.6540937,4.7876298,node,9169984731
Arles,historic,23.00,43.6555851,4.7886905,node,9170164480
Arles,historic,Sans nom,43.7201931,4.8092481,node,9600159317
Arles,historic,Sans nom,43.7427687,4.7945606,node,9600751053
Arles,historic,Mémorial du GB 11,43.6554456,4.7672833,node,10126583436
Arles,historic,monument aux morts,43.7210548,4.8051305,node,10298239365
Arles,historic,Monument aux morts,43.6889151,4.8716401,node,10298260240
Arles,historic,Camp de Saliers,43.6362701,4.475779,node,10676378719
Arles,historic,Sans nom,43.6886957,4.8717443,node,10814932082
Arles,historic,Sans nom,43.6937549,4.7146162,node,11735212343
Arles,historic,Alyscamps,43.67271,4.6342444,node,11831252178
Arles,historic,Mémorial aux déportés,43.676618,4.6328588,node,11896619369
Arles,historic,Sans nom,43.384081,4.8090437,node,12585317780
Arles,historic,Stèle des rapatriés,43.3888864,4.8355777,node,12585317781
Arles,historic,Sans nom,43.6734972,4.6061952,node,12707783290
Arles,historic,Sans nom,43.6750332,4.631076,node,12707873224
Arles,historic,Sans nom,43.6749389,4.6277303,node,12877621258
Arles,historic,Sans nom,43.7441755,4.7945383,node,12982381751
Arles,historic,Porte d'Auguste,43.6762532,4.6325962,node,13030436325
Arles,historic,Agents victimes des deux guerres,43.6725843,4.6362485,node,13050634949
Arles,historic,Sans nom,43.6754274,4.6306665,node,13083767355
Arles,historic,A TOUT LES FRANCAIS,43.6370506,4.8082076,node,13196244828
Arles,historic,Cryptoportiques d'Arles,43.6770452,4.6270298,way,88736587
Arles,historic,Château d'Escanin,43.7249758,4.7818829,way,101437066
Arles,historic,Mas de Brau,43.6904905,4.8610354,way,101443610
Arles,historic,Sans nom,43.7457441,4.6411331,way,102059076
Arles,historic,Hôtel Boussicaud,43.6751508,4.6211391,way,102060266
Arles,historic,Bâtiments conventuels,43.7053879,4.6638043,way,102061523
Arles,historic,Remparts de Villeneuve,43.6772617,4.6328674,way,102062597
Arles,historic,Sans nom,43.6809713,4.6328694,way,102063093
Arles,historic,Sans nom,43.4081177,4.7327847,way,102064898
Arles,historic,Église Saint-Honorat,43.6712887,4.6372289,way,102064935
Arles,historic,Sans nom,43.6785191,4.6244094,way,102072950
Arles,historic,Tour de la Roquette,43.6753921,4.6192857,way,102073914
Arles,historic,Sans nom,43.6780035,4.6330457,way,102075653
Arles,historic,Chapelle Saint-Jean de Moustiers,43.6758613,4.6314745,way,102076130
Arles,historic,Sans nom,43.4077769,4.7321067,way,102076310
Arles,historic,Sans nom,43.4080709,4.7327974,way,102077531
Arles,historic,Église Saint-Blaise,43.6756544,4.6316473,way,102081274
Arles,historic,Chapelle (restes),43.7135006,4.6842393,way,102087918
Arles,historic,Château de Barbegal,43.6974072,4.7149346,way,102088663
Arles,historic,Sans nom,43.4079678,4.7328456,way,102089059
Arles,historic,Sans nom,43.4138273,4.7291139,way,102090331
Arles,historic,Palais de l'Archevêché,43.676384,4.6279695,way,102090982
Arles,historic,Pigeonnier,43.7227685,4.7011829,way,102092255
Arles,historic,Moulin de Daudet,43.7209774,4.7128237,way,102093172
Arles,historic,Château de Montauban,43.7261414,4.7142375,way,102093267
Arles,historic,Sans nom,43.6758293,4.6324935,way,102094456
Arles,historic,Chapelle de l'Hôpital (ancienne),43.6761432,4.6253286,way,102095293
Arles,historic,Sans nom,43.4075687,4.7321931,way,102097508
Arles,historic,Sans nom,43.4183741,4.7341784,way,102098811
Arles,historic,Cathédrale Saint-Trophime d'Arles,43.6766406,4.6282766,way,102099277
Arles,historic,Sans nom,43.4080177,4.7325908,way,102102960
Arles,historic,Sans nom,43.4079143,4.7326391,way,102104150
Arles,historic,Palais de Luppé,43.6775152,4.6300517,way,102104884
Arles,historic,Chapelle de la Charité,43.6750802,4.6288104,way,102106749
Arles,historic,Sans nom,43.4076222,4.7323955,way,102106952
Arles,historic,Hôtel Particulier de Viguier,43.6771075,4.6279277,way,102107731
Arles,historic,Sans nom,43.6759934,4.6324204,way,102108475
Arles,historic,Chapelle des Trinitaires,43.6763177,4.6258495,way,102109425
Arles,historic,Remparts de Villeneuve,43.676535,4.6326489,way,102110929
Arles,historic,Obélisque d'Arles,43.6764236,4.6276018,way,102114962
Arles,historic,Église des Frères Prêcheurs,43.6786021,4.6260789,way,102115303
Arles,historic,Sans nom,43.6756423,4.6322091,way,102116254
Arles,historic,Sans nom,43.6914828,4.6446023,way,102116387
Arles,historic,Sans nom,43.676946,4.4340945,way,114999887
Arles,historic,Église abbatiale de Saint-Gilles du Gard,43.676799,4.432253,way,115000513
Arles,historic,Chapelle Saint-Joseph,43.7551545,4.565603,way,130179198
Arles,historic,Aqueduc Romain de Barbegal,43.7054831,4.7217084,way,153291489
Arles,historic,Théâtre antique,43.6764816,4.6299351,way,155036483
Arles,historic,Château de Vilpail,43.658968,4.839498,way,158391202
Arles,historic,Château de Vergière,43.5711305,4.8192015,way,158401574
Arles,historic,Ancien Hôtel de Ville,43.45125,4.427593,way,163436587
Arles,historic,Mas des Templiers,43.5698218,4.5029644,way,163436917
Arles,historic,Tour de la Madonne,43.7525723,4.5098925,way,180918121
Arles,historic,Oratoire Saint-Roch,43.7179103,4.7878367,way,205196378
Arles,historic,Sans nom,43.7047137,4.7890246,way,205196498
Arles,historic,Acqueduc romain,43.7212606,4.777207,way,205229597
Arles,historic,Aqueduc Romain de Barbegal,43.7039398,4.7210884,way,213778652
Arles,historic,Nécropole des Alyscamps,43.6722167,4.6353189,way,236818153
Arles,historic,Prieuré de Saint-Peyre d'Entremonts,43.7567672,4.7377599,way,266852116
Arles,historic,Cirque romain,43.6734554,4.6185175,way,301571362
Arles,historic,Château des Baux-de-Provence,43.7439773,4.7965861,way,329862230
Arles,historic,Sans nom,43.6371321,4.8063497,way,374443929
Arles,historic,Château d'Estoublon,43.7357152,4.7419529,way,446697730
Arles,historic,Chapelle Saint-Blaise (ancienne),43.7428789,4.7945959,way,446697759
Arles,historic,Chapelle des Pénitents Blancs,43.7435863,4.7941053,way,446697763
Arles,historic,Hôtel de Porcelet,43.7436689,4.7945135,way,446697871
Arles,historic,Pompe du Tonkin,43.4620295,4.859148,way,489104180
Arles,historic,Sans nom,43.6811637,4.6308491,way,540518205
Arles,historic,Sans nom,43.6810962,4.6317651,way,540518206
Arles,historic,Meunerie Romaine de Barbegal,43.7027267,4.7211637,way,545216022
Arles,historic,Sans nom,43.7033002,4.720977,way,545424412
Arles,historic,Aqueduc des Sumians,43.7110617,4.6995478,way,545427430
Arles,historic,Sans nom,43.7048892,4.7898086,way,550407893
Arles,historic,Sans nom,43.7044487,4.7897198,way,550407894
Arles,historic,Nécropole,43.7054622,4.6643478,way,560555850
Arles,historic,Sans nom,43.6767379,4.4327943,way,562030375
Arles,historic,Sans nom,43.6725462,4.6171862,way,643063673
Arles,historic,Sans nom,43.6837652,4.63007,way,650546472
Arles,historic,Sans nom,43.683734,4.6261206,way,650553813
Arles,historic,Sans nom,43.6836914,4.6261414,way,650553815
Arles,historic,Sans nom,43.683807,4.6300262,way,650553817
Arles,historic,Sans nom,43.6837248,4.6300276,way,650553818
Arles,historic,Sans nom,43.6837288,4.6268383,way,650555471
Arles,historic,Sans nom,43.6837533,4.6293578,way,650555472
Arles,historic,Sans nom,43.6764238,4.6276022,way,651564537
Arles,historic,Porte des Maréchaux,43.6770865,4.429987,way,753724626
Arles,historic,Cryptoportiques d'Arles - Emplacement de l'Ancien Forum,43.6773452,4.6270886,way,755399169
Arles,historic,Les Deux Colonnes,43.6764537,4.6295603,way,757783474
Arles,historic,Sans nom,43.676516,4.6295628,way,757783475
Arles,historic,Sans nom,43.6764608,4.6295602,way,757783476
Arles,historic,Sans nom,43.6764464,4.6295597,way,757783477
Arles,historic,Tour des Mourgues,43.6754546,4.6324,way,761068123
Arles,historic,Ruines de Chateau,43.7465517,4.799041,way,771413562
Arles,historic,Sans nom,43.7035324,4.7213366,way,779306496
Arles,historic,Sans nom,43.7038097,4.7213799,way,779306498
Arles,historic,Sans nom,43.7040657,4.7214269,way,779306499
Arles,historic,Sans nom,43.7046681,4.7215339,way,779306501
Arles,historic,Sans nom,43.7049953,4.721592,way,779306502
Arles,historic,Sans nom,43.7053379,4.721679,way,779306503
Arles,historic,Sans nom,43.7054567,4.7216613,way,779306504
Arles,historic,Sans nom,43.7057927,4.7217636,way,779306505
Arles,historic,Sans nom,43.7048561,4.7215657,way,779306506
Arles,historic,La citerne,43.7403962,4.757,way,781118005
Arles,historic,Sans nom,43.5658573,4.6424084,way,783372801
Arles,historic,Sans nom,43.7601253,4.5066774,way,839296609
Arles,historic,Portail Historique,43.6746124,4.6353305,way,882790240
Arles,historic,Sans nom,43.704455,4.7214952,way,904057570
Arles,historic,Vestige de l'aqueduc romain,43.7076204,4.7119678,way,904993828
Arles,historic,Vestige de l'aqueduc romain,43.7082829,4.7065385,way,934985753
Arles,historic,Sans nom,43.7093806,4.7024991,way,934985758
Arles,historic,Le moulin,43.7416832,4.7931216,way,963210472
Arles,historic,Aqueduc romain,43.7112742,4.6990305,way,991100755
Arles,historic,Hypogée du Castelet,43.7093433,4.6761095,way,996142385
Arles,historic,Pont de Constantin,43.6820684,4.6267857,way,1013692074
Arles,historic,Site archéologique de la Verrerie de Trinquetaille,43.6815288,4.6206033,way,1050843744
Arles,historic,La Croix de Camargue,43.5695693,4.5053276,way,1053842248
Arles,historic,Exèdre romaine,43.6766862,4.6261595,way,1066962619
Arles,historic,Plan dallé,43.7420007,4.7934403,way,1076504143
Arles,historic,Sans nom,43.7434521,4.7940388,way,1125053479
Arles,historic,Porte Eyguières,43.7441221,4.7946418,way,1126008975
Arles,historic,Castrum de Montpaon,43.7402725,4.7571722,way,1147133831
Arles,historic,La Marianne,43.7262209,4.7094888,way,1189606232
Arles,historic,Sans nom,43.6750141,4.6302499,way,1267224443
Arles,historic,Sans nom,43.6715363,4.6366715,way,1298895046
Arles,historic,Sans nom,43.6715441,4.6366202,way,1298895047
Arles,historic,Sans nom,43.6715516,4.6365638,way,1298895048
Arles,historic,Sans nom,43.671528,4.6367204,way,1298895049
Arles,historic,Sans nom,43.6715205,4.6367718,way,1298895050
Arles,historic,Sans nom,43.6715144,4.6368219,way,1298895051
Arles,historic,Sans nom,43.6715094,4.6368514,way,1298895052
Arles,historic,Sans nom,43.6715051,4.6368791,way,1298895053
Arles,historic,Sans nom,43.671499,4.6369223,way,1298895054
Arles,historic,Sans nom,43.6714913,4.6369697,way,1298895055
Arles,historic,Porte d'Auguste,43.6761131,4.6324036,way,1308675629
Arles,historic,Sans nom,43.6761497,4.6324127,way,1308675630
Arles,historic,Sans nom,43.7470427,4.7255747,way,1358409173
Arles,historic,Sans nom,43.6747013,4.6203952,way,1381615097
Arles,historic,Sans nom,43.7042381,4.721462,way,1387939482
Arles,historic,Sans nom,43.7048741,4.7216023,way,1387939483
Arles,historic,Ancienne bergerie romaine,43.5614984,4.8215562,way,1443755645
Arles,historic,Cloître Saint-Trophime,43.6763136,4.6286893,relation,1451742
Arles,historic,Cloître,43.70555,4.6638179,relation,1451754
Arles,historic,Tour Saint-Louis,43.384691,4.8049805,relation,1547806
Arles,historic,Remparts du castrum romain,43.6767481,4.6325589,relation,3186518
Arles,historic,"Arles, monuments romains et romans",43.675624,4.6292545,relation,3186519
Arles,historic,Arènes d'Arles,43.6777512,4.6309275,relation,3371341
Arles,historic,Château Boissy d'Anglas,43.6942805,4.612116,relation,4023166
Arles,historic,Via Agrippa,47.3039138,5.6475217,relation,5612334
Arles,historic,Château de la Jansonne,43.6544499,4.7001698,relation,9604476
Arles,historic,Vestige de l'aqueduc romain,43.7079258,4.7089118,relation,12627387
Arles,historic,Vestige de l'aqueduc romain,43.7092361,4.7032401,relation,12627388
Arles,historic,Pont Peyssonier - Vestige de l'aqueduc romain,43.7092848,4.7028104,relation,12627389
Arles,historic,Porte de la Cavalerie,43.6811479,4.631336,relation,13102892
Arles,historic,Monastère Saint-Maur,43.7055588,4.6631896,relation,13365267
Arles,historic,Sans nom,43.7054735,4.662761,relation,13365704
Arles,historic,Thermes de Constantin,43.6789752,4.6272139,relation,13931761
Arles,historic,Grande halle,43.6818655,4.6208207,relation,14026448
Arles,historic,Sans nom,43.748686,4.7601494,relation,18614102
Avignon,museum,Musée du Petit Palais,43.9527473,4.8063438,node,309712990
Avignon,museum,Museum Requien,43.9467218,4.8034283,node,443916232
Avignon,museum,Musée Pierre-de-Luxembourg,43.9637314,4.7968264,node,908930249
Avignon,museum,Chartreuse Notre-Dame-du-Val-de-Bénédiction,43.9665144,4.7975804,node,1070740454
Avignon,museum,Musée Angladon,43.9460946,4.8069976,node,1490236423
Avignon,museum,Musée Calvet,43.9469675,4.8036302,node,1490236424
Avignon,museum,Musée de l'Œuvre,43.9509826,4.8061963,node,1490236425
Avignon,museum,Palais du Roure,43.9484284,4.805423,node,1501550355
Avignon,museum,Musée du Palais des Papes,43.9506848,4.8069668,node,2115650839
Avignon,museum,Maison Jean Vilar,43.9498046,4.8067172,node,12039405942
Avignon,museum,Musée Bains Pommer,43.947283,4.811686,node,12952010401
Avignon,museum,Maison Jean Vilar,43.9491728,4.8067669,way,83755833
Avignon,museum,Collection Lambert,43.9447971,4.8043332,way,83774997
Avignon,museum,Musée Lapidaire,43.945887,4.806035,way,83784740
Avignon,museum,Musée Louis Vouland,43.947265,4.8006216,way,83788659
Avignon,park,Erable de Montpellier,43.9602082,4.7970261,node,4157704390
Avignon,park,Jardin botanique,43.9687452,4.7941176,node,4157751115
Avignon,park,Jardin sec,43.977124,4.7868359,node,4157753426
Avignon,park,Jardin sec,43.9749313,4.7815734,node,4157753677
Avignon,park,Jardin sec,43.9777231,4.7870518,node,4157757789
Avignon,park,Jardin sec,43.9705818,4.7959306,node,4157760133
Avignon,park,Jardin de la Garenne,43.9740116,4.7794029,node,4157768402
Avignon,park,Jardin sec,43.9797938,4.785615,node,4157770888
Avignon,park,Promenade des Perrières,43.9847192,4.7967626,node,11716786022
Avignon,park,Square Agricol Perdiguier,43.9446542,4.8064351,way,28196526
Avignon,park,Sans nom,43.950982,4.81969,way,83789543
Avignon,park,Sans nom,43.9321869,4.8463373,way,85273439
Avignon,park,Parc Chico Mendes,43.9465202,4.8479629,way,88191911
Avignon,park,Square des Cigales,43.9351936,4.8727677,way,91750223
Avignon,park,Sans nom,43.9532456,4.8533935,way,96969164
Avignon,park,Rocher des Doms,43.9526663,4.8080925,way,132792631
Avignon,park,Sans nom,43.9628738,4.8751006,way,133054808
Avignon,park,Jardin des Carmes,43.9508789,4.8137812,way,160651260
Avignon,park,Parc Saint-Lazare,43.9520988,4.817647,way,205331368
Avignon,park,Sans nom,43.9476071,4.8190234,way,205332767
Avignon,park,Sans nom,43.9471792,4.8187155,way,205332768
Avignon,park,Sans nom,43.9437301,4.8010212,way,241502001
Avignon,park,Parc Bardi,43.9787322,4.9100573,way,242483141
Avignon,park,Parc de la Mairie,43.9596154,4.863659,way,274571682
Avignon,park,Parc de Saint Louis,43.9546015,4.8687079,way,274573521
Avignon,park,Sans nom,43.9624363,4.8573905,way,275265517
Avignon,park,La Colline des Mourgues,43.9607661,4.7952106,way,276546708
Avignon,park,Sans nom,43.9654916,4.7953731,way,292049231
Avignon,park,Parc du Pré du Curé,43.9353773,4.797517,way,301662335
Avignon,park,Sans nom,43.9303946,4.8269081,way,315567710
Avignon,park,Parc du Clos de la Murette,43.926931,4.8248952,way,329695685
Avignon,park,Sans nom,43.9579515,4.7956553,way,340385968
Avignon,park,"Jeux d'enfants, bancs.",43.9589876,4.9269926,way,342852750
Avignon,park,Sans nom,43.9741358,4.9176014,way,359277961
Avignon,park,Sans nom,43.9394046,4.799678,way,411057594
Avignon,park,Sans nom,43.954061,4.8002545,way,443543881
Avignon,park,Sans nom,43.9547229,4.8050429,way,443543882
Avignon,park,Sans nom,43.9501031,4.8172781,way,445338067
Avignon,park,Parc du Clos de la Murette,43.951578,4.8393588,way,465886860
Avignon,park,Sans nom,43.9544019,4.830801,way,477678180
Avignon,park,Place des Petits Pas,43.9318804,4.8303418,way,477693104
Avignon,park,Parc de la Cantonne Avignon,43.9369476,4.8721383,way,497096789
Avignon,park,Parc de l'Abbaye,43.9323704,4.8132119,way,544362988
Avignon,park,Parc Campo Bello,43.9307552,4.8115302,way,544371908
Avignon,park,Parc de la Croix de Noves,43.9260376,4.8386293,way,544373651
Avignon,park,Sans nom,43.9151286,4.8898389,way,653247348
Avignon,park,Parc Colette,43.9296211,4.7968464,way,656749240
Avignon,park,Sans nom,43.9177125,4.8803189,way,660690187
Avignon,park,Parc du Cosmos,43.9624589,4.7539211,way,669956534
Avignon,park,Sans nom,43.9174661,4.8884587,way,682073707
Avignon,park,Jardins de la Castelette,43.9183127,4.8785604,way,688106252
Avignon,park,Sans nom,43.9618465,4.742273,way,729451427
Avignon,park,Sans nom,43.9211687,4.8966121,way,779645075
Avignon,park,Sans nom,43.9358388,4.8713002,way,780974238
Avignon,park,Sans nom,43.9419074,4.8444304,way,784234731
Avignon,park,Sans nom,43.9428568,4.84143,way,784234732
Avignon,park,Sans nom,43.9438592,4.8332068,way,813961854
Avignon,park,Parc Julie-Victoire Daubié,43.9257758,4.8035933,way,857510387
Avignon,park,Base de loisirs de la Barthelasse,43.954745,4.8001955,way,889787476
Avignon,park,Domaine de la Souvine,43.9261929,4.8652323,way,890842018
Avignon,park,Sans nom,43.9373581,4.804712,way,903063317
Avignon,park,Sans nom,43.9670354,4.800677,way,985471579
Avignon,park,Sans nom,43.9433116,4.8277444,way,1001810611
Avignon,park,Square Anne Frank,43.9346038,4.8058892,way,1024174062
Avignon,park,Parc de la Laïcité,43.9327276,4.7961039,way,1024174063
Avignon,park,parc stc,43.931707,4.8423897,way,1047830839
Avignon,park,Sans nom,43.9637202,4.8814547,way,1090693101
Avignon,park,Sans nom,43.9548747,4.7736791,way,1194210542
Avignon,park,Sans nom,43.9542378,4.7745241,way,1194210543
